SALE TYPE,HOME TYPE,ADDRESS,CITY,STATE,ZIP,LIST PRICE,BEDS,BATHS,LOCATION,SQFT,LOT SIZE,YEAR BUILT,PARKING SPOTS,PARKING TYPE,DAYS ON MARKET,STATUS,NEXT OPEN HOUSE DATE,NEXT OPEN HOUSE START TIME,NEXT OPEN HOUSE END TIME,RECENT REDUCTION DATE,ORIGINAL LIST PRICE,LAST SALE DATE,LAST SALE PRICE,URL (SEE http://www.redfin.com/buy-a-home/comparative-market-analysis FOR INFO ON PRICING),SOURCE,LISTING ID,ORIGINAL SOURCE,FAVORITE,INTERESTED,LATITUDE,LONGITUDE,IS SHORT SALE
MLS Listing,Vacant Land,7.5 Acres Guntertown Rd Unit 7.5 ACRE,Talladega,AL,36251,30000,,,,,326700,,0,,145,Active,,,,,30000,,,http://www.redfin.com/AL/Talladega/7-5-Acres-Guntertown-Rd-36251/unit-75-ACRE/home/101763358,Greater Alabama MLS,581527,"Cheaha Realty Services, LLC",N,Y,33.4345093,-86.1026917,false
MLS Listing,Vacant Land,Camelot Cir Unit 20 LOTS,Talladega,AL,35160,30000,,,Camelot Acres,,871200,,0,,145,Active,,,,,30000,,,http://www.redfin.com/AL/Talladega/Camelot-Cir-35160/unit-20-LOTS/home/101762476,Greater Alabama MLS,568039,Hunter Bend Realty,N,Y,33.4649339146452,-86.078458029837,false
MLS Listing,Vacant Land,Talladega Creek Rd #3,Talladega,AL,35160,75000,,,,,437778,,0,,93,Active,,,,,75000,,,http://www.redfin.com/AL/Talladega/3-Talladega-Creek-Rd-35160/unit-3/home/102285136,Greater Alabama MLS,736280,AlaHomes Realty,N,Y,33.4085007,-86.1144994,false
MLS Listing,Single Family Residential,808 Cherry St,Talladega,AL,35160,65000,2,1.0,,,18730,1935,2,,145,Active,,,,2015-12-15,70000,,,http://www.redfin.com/AL/Talladega/808-Cherry-St-35160/home/80783241,Greater Alabama MLS,729937,ERA King - Lincoln,N,Y,33.423891,-86.096593,false
MLS Listing,Single Family Residential,382 Pinehurst Dr,Talladega,AL,35160,74900,3,1.0,The Pines,,10018,1958,1,Garage,83,Active,,,,,74900,,,http://www.redfin.com/AL/Talladega/382-Pinehurst-Dr-35160/home/86061083,Greater Alabama MLS,736686,Hometown Realty,N,Y,33.424711,-86.105885,false
MLS Listing,Vacant Land,Southridge Ln #29,Talladega,AL,35160,17500,,,,,130680,,0,,145,Active,,,,,17500,,,http://www.redfin.com/AL/Talladega/Southridge-Ln-35160/unit-29/home/101766545,Greater Alabama MLS,606044,Hometown Realty,N,Y,33.392339,-86.106054,false
MLS Listing,Single Family Residential,620 Cherry St,Talladega,AL,35160,99500,3,1.5,Moorefield,,2178,1955,3,Garage,145,Active,,,,,99500,,,http://www.redfin.com/AL/Talladega/620-Cherry-St-35160/home/101750010,Greater Alabama MLS,635523,Porter and Porter,N,Y,33.4279275,-86.0969201,false
MLS Listing,Single Family Residential,106 Briarwood Dr,Talladega,AL,35160,100000,3,2.5,Briarwood,,130,1977,2,Garage,145,Active,,,,,100000,,,http://www.redfin.com/AL/Talladega/106-Briarwood-Dr-35160/home/80769809,Greater Alabama MLS,725155,Keller Williams Realty Group,N,Y,33.417386,-86.092696,false
MLS Listing,Single Family Residential,1113 Southwood Ave,Talladega,AL,35160,260000,6,4.0,Indian Hills,,39204,1980,2,Garage,145,Active,,,,,255000,,,http://www.redfin.com/AL/Talladega/1113-Southwood-Ave-35160/home/80782059,Greater Alabama MLS,729361,Porter and Porter,N,Y,33.418121,-86.097642,false
MLS Listing,Single Family Residential,608 Hillandale Dr,Talladega,AL,35160,89500,3,2.0,Hillandale,,25264,1968,1,,145,Active,,,,,89500,,,http://www.redfin.com/AL/Talladega/608-Hillandale-Dr-35160/home/101749857,Greater Alabama MLS,635488,Porter and Porter,N,Y,33.4157781,-86.0917294,false
MLS Listing,Multi-Family (2-4 Unit),509 Damon Ave E,Talladega,AL,35160,75000,2,2.0,Bemiston,,,1930,0,,145,Active,,,,,75000,,,http://www.redfin.com/AL/Talladega/509-E-Damon-Ave-35160/home/101768386,Greater Alabama MLS,589688,ERA King - Lincoln,N,Y,33.4154242,-86.1166833,false
MLS Listing,Single Family Residential,86 Ironaton Rd,Talladega,AL,35160,117500,5,2.5,,,522720,1963,2,,145,Active,,,,,117500,,,http://www.redfin.com/AL/Talladega/86-Ironaton-Rd-35160/home/80769519,Greater Alabama MLS,634933,Porter and Porter,N,Y,33.432228,-86.07253,false
MLS Listing,Single Family Residential,355 Moorefield Dr,Talladega,AL,35160,130000,3,3.0,Moorefield,,20037,1963,2,,140,Active,,,,,130000,,,http://www.redfin.com/AL/Talladega/355-Moorefield-Dr-35160/home/80769612,Greater Alabama MLS,733330,ERA King - Lincoln,N,Y,33.430063,-86.095184,false
MLS Listing,Single Family Residential,500 Cherry St,Talladega,AL,35160,125000,3,2.0,,,17424,1953,2,Garage,145,Active,,,,,125000,,,http://www.redfin.com/AL/Talladega/500-Cherry-St-35160/home/80770965,Greater Alabama MLS,609773,Hometown Realty,N,Y,33.43106,-86.096673,false
MLS Listing,Single Family Residential,500 E South St,Talladega,AL,35160,154900,4,2.0,,,9147,1890,2,Garage,145,Active,,,,,154900,,,http://www.redfin.com/AL/Talladega/500-South-St-E-35160/home/80789084,Greater Alabama MLS,722847,ERA King - Lincoln,N,Y,33.4344649,-86.093772,false
MLS Listing,Single Family Residential,206 Damon Ave W,Talladega,AL,35160,128000,3,2.0,Bemiston,,43560,1946,2,Garage,145,Active,,,,,128000,,,http://www.redfin.com/AL/Talladega/206-W-Damon-Ave-35160/home/80784768,Greater Alabama MLS,566172,Porter and Porter,N,Y,33.406732,-86.122579,false
MLS Listing,Single Family Residential,102 Maine St,Talladega,AL,35160,128000,3,1.5,Highland Farms,,43560,1970,4,,145,Active,,,,,128000,,,http://www.redfin.com/AL/Talladega/102-Maine-St-35160/home/80771370,Greater Alabama MLS,722054,Keller Williams Realty Bham,N,Y,33.407635,-86.135409,false
MLS Listing,Single Family Residential,203 E Damon Ave,Talladega,AL,35160,83900,2,2.0,,,9583,1900,2,,145,Active,,,,2015-11-23,85000,,,http://www.redfin.com/AL/Talladega/203-E-Damon-Ave-35160/home/80776190,Greater Alabama MLS,730557,AlaHomes Realty,N,Y,33.410365,-86.116984,false
MLS Listing,Multi-Family (2-4 Unit),309 Wells Ave,Talladega,AL,35160,72500,4,2.0,Bemiston,,,1946,0,,139,Active,,,,,72500,,,http://www.redfin.com/AL/Talladega/309-Wells-Ave-35160/home/80780776,Greater Alabama MLS,733410,Porter and Porter,N,Y,33.412536,-86.116068,false
MLS Listing,Single Family Residential,408 Wells Ave,Talladega,AL,35160,79500,3,2.0,Bemiston,,13068,1976,1,,145,Active,,,,,79500,,,http://www.redfin.com/AL/Talladega/408-Wells-Ave-35160/home/80784220,Greater Alabama MLS,623776,Porter and Porter,N,Y,33.41363,-86.11561,false
MLS Listing,Single Family Residential,734 Stone Ave,Talladega,AL,35160,177500,3,1.0,Stone & Stapp,,137214,1960,2,,145,Active,,,,,177500,,,http://www.redfin.com/AL/Talladega/734-Stone-Ave-35160/home/80772675,Greater Alabama MLS,625810,LAH - Mountain Brook Branch,N,Y,33.440776,-86.087174,false
MLS Listing,Single Family Residential,607 Mcalpine St,Talladega,AL,35160,124900,3,2.0,,,,2014,0,,126,Active,,,,,124900,,,http://www.redfin.com/AL/Talladega/607-Mcalpine-St-35160/home/86060844,Greater Alabama MLS,734354,AlaHomes Realty,N,Y,33.438232421875,-86.1118698120117,false
MLS Listing,Single Family Residential,703 North St,Talladega,AL,35160,69990,3,2.0,,,14374,1900,0,,145,Active,,,,,69990,,,http://www.redfin.com/AL/Talladega/703-North-St-E-35160/home/101749644,Greater Alabama MLS,725123,ERA King - Lincoln,N,Y,33.437802,-86.089558,false
MLS Listing,Single Family Residential,104 Morgan St,Talladega,AL,35160,69900,2,2.0,,,,1925,1,,145,Active,,,,,69900,,,http://www.redfin.com/AL/Talladega/104-Morgan-St-35160/home/101750564,Greater Alabama MLS,631660,Keller Williams Realty Group,N,Y,33.4379477,-86.0916294,false
MLS Listing,Single Family Residential,908 Nimitz Ave,Talladega,AL,35160,72500,2,2.0,Brecon,,12632,1960,1,,145,Active,,,,,72500,,,http://www.redfin.com/AL/Talladega/908-Nimitz-Ave-35160/home/80771079,Greater Alabama MLS,623796,Porter and Porter,N,Y,33.458616,-86.077856,false
MLS Listing,Single Family Residential,1100 East St S,Talladega,AL,35160,255000,3,3.5,,,43560,1963,4,Garage,145,Active,,,,,255000,,,http://www.redfin.com/AL/Talladega/1100-East-St-S-35160/home/101749169,Greater Alabama MLS,602120,Hometown Realty,N,Y,33.418945,-86.1000775,false
MLS Listing,Vacant Land,Eastland Shrs #42,Lincoln,AL,35096,25000,,,Eastland Shores,,43560,,0,,145,Active,,,,,25000,,,http://www.redfin.com/AL/Lincoln/Eastland-Shrs-Unknown/unit-42/home/101763296,Greater Alabama MLS,725470,The Realty Pros,N,Y,33.4345093,-86.1026917,false
MLS Listing,Vacant Land,Jackson Trace Rd Unit 3.3 AC,Talladega,AL,35160,25000,,,,,143748,,0,,145,Active,,,,,25000,,,http://www.redfin.com/AL/Talladega/Jackson-Trace-Rd-35160/unit-33-AC/home/101762723,Greater Alabama MLS,616917,ERA King Real Estate Pell City,N,Y,33.462924,-86.107377,false
MLS Listing,Single Family Residential,433 N East St,Talladega,AL,35160,220000,3,1.0,Talladega,,74052,1950,0,,120,Active,,,,,220000,,,http://www.redfin.com/AL/Talladega/433-East-St-N-35160/home/102089108,Greater Alabama MLS,734499,LAH - Mountain Brook Branch,N,Y,33.442776,-86.1040686,false
MLS Listing,Single Family Residential,600 East St,Talladega,AL,35160,187500,4,3.0,,,43,1920,0,,145,Active,,,,,187500,,,http://www.redfin.com/AL/Talladega/600-East-St-S-35160/home/86057983,Greater Alabama MLS,721443,Porter and Porter,N,Y,33.4347493,-86.0983019,false
MLS Listing,Single Family Residential,311 Shaw Ave,Talladega,AL,35160,30000,3,1.0,,,10018,1940,0,,110,Active,,,,,30000,,,http://www.redfin.com/AL/Talladega/311-Shaw-Ave-35160/home/86059785,Greater Alabama MLS,735293,ERA King - Lincoln,N,Y,33.449289,-86.099667,false
MLS Listing,Single Family Residential,508 E Coffee St E,Talladega,AL,35160,25000,2,2.0,,,,1950,0,,145,Active,,,,,25000,,,http://www.redfin.com/AL/Talladega/508-E-Coffee-St-35160/home/86066318,Greater Alabama MLS,729110,Extreme Agent Inc,N,Y,33.435291,-86.093238,false
MLS Listing,Single Family Residential,311 Percy St,Talladega,AL,35160,56900,3,2.0,,,18730,1975,0,,145,Active,,,,,56900,,,http://www.redfin.com/AL/Talladega/311-Percy-St-35160/home/86066601,Greater Alabama MLS,592109,Keller Williams Realty Group,N,Y,33.441216,-86.102123,false
MLS Listing,Single Family Residential,724 S Spring St,Talladega,AL,35160,220000,3,2.0,Dellwood Estates,,217,1988,2,,141,Active,,,,,220000,,,http://www.redfin.com/AL/Talladega/724-S-Spring-St-35160/home/86067087,Greater Alabama MLS,733211,Porter and Porter,N,Y,33.424269,-86.103275,false
MLS Listing,Single Family Residential,728 Maple Dr,Talladega,AL,35160,359000,5,4.0,Hillcrest,,32234,1950,2,Garage,145,Active,,,,2016-01-04,389000,,,http://www.redfin.com/AL/Talladega/728-Maple-Dr-35160/home/80777730,Greater Alabama MLS,625874,ERA King - Lincoln,N,Y,33.431202,-86.089272,false
MLS Listing,Single Family Residential,113 Highland Cir,Talladega,AL,35160,59000,2,1.0,East Highland,,9147,1950,0,,79,Active,,,,,59000,,,http://www.redfin.com/AL/Talladega/113-Highland-Cir-35160/home/86061237,Greater Alabama MLS,736886,Century 21 Harris McKay,N,Y,33.438459,-86.092836,false
MLS Listing,Single Family Residential,502 East St S,Talladega,AL,35160,499000,5,4.0,Talladega,,29185,1920,2,,145,Active,,,,2016-01-08,499500,,,http://www.redfin.com/AL/Talladega/502-East-St-S-35160/home/80776069,Greater Alabama MLS,620853,"Ina Black Realty, LLC",N,Y,33.431045,-86.100667,false
MLS Listing,Single Family Residential,1012 Southwood Ave,Talladega,AL,35160,87000,3,2.0,Pinewood,,16552,1965,1,,73,Active,,,,,87000,,,http://www.redfin.com/AL/Talladega/1012-Southwood-Ave-35160/home/86066971,Greater Alabama MLS,737468,RE/MAX Classic,N,Y,33.420371,-86.097875,false
MLS Listing,Vacant Land,0 Dogwood Trl #27,Talladega,AL,35160,40000,,,Logan Martin Lake In The Woods,,65340,,0,,72,Active,,,,,40000,,,http://www.redfin.com/AL/Talladega/27-Dogwood-Cir-35160/unit-27/home/102753918,Greater Alabama MLS,737536,The Realty Pros,N,Y,33.4176353,-86.091892,false
MLS Listing,Single Family Residential,710 Cherokee St,Talladega,AL,35160,62500,3,1.0,Overlook,,12196,1940,1,,71,Active,,,,,62500,,,http://www.redfin.com/AL/Talladega/710-Cherokee-Dr-35160/home/86061272,Greater Alabama MLS,737638,ERA King Real Estate,N,Y,33.426449,-86.098768,false
MLS Listing,Single Family Residential,1128 Shady Lane Cir,Talladega,AL,35160,154999,4,2.0,Dellwood Estates,,,1977,2,Garage,145,Active,,,,2016-01-15,164900,,,http://www.redfin.com/AL/Talladega/1128-Shady-Lane-Cir-35160/home/80780656,Greater Alabama MLS,727242,ERA King - Lincoln,N,Y,33.4187281,-86.1051346,false
MLS Listing,Single Family Residential,811 Walnut St,Talladega,AL,35160,60000,3,1.0,,,40075,1960,2,Garage,145,Active,,,,2016-01-19,70000,,,http://www.redfin.com/AL/Talladega/811-Walnut-St-35160/home/80774623,Greater Alabama MLS,730612,ERA King - Lincoln,N,Y,33.424205,-86.095921,false
MLS Listing,Single Family Residential,108 Hickory Ln,Talladega,AL,35160,97500,3,2.0,Forest Hills,,87,1974,2,Garage,64,Active,,,,,97500,,,http://www.redfin.com/AL/Talladega/108-Hickory-Ln-35160/home/80785555,Greater Alabama MLS,738313,Porter and Porter,N,Y,33.408284,-86.092505,false
MLS Listing,Single Family Residential,402 E Lancaster St,Talladega,AL,35160,51000,3,1.0,,,6969,1956,0,,64,Active,,,,,51000,,,http://www.redfin.com/AL/Talladega/402-Lancaster-St-35160/home/102904658,Greater Alabama MLS,738374,Porter and Porter,N,Y,33.4237198,-86.0952059,false
MLS Listing,Single Family Residential,400 Lancaster St E,Talladega,AL,35160,49900,3,1.0,,,6969,1956,0,,64,Active,,,,,49900,,,http://www.redfin.com/AL/Talladega/400-Lancaster-St-35160/home/102904850,Greater Alabama MLS,738375,Porter and Porter,N,Y,33.4237228,-86.0953389,false
MLS Listing,Single Family Residential,407 Dumas Ave,Talladega,AL,35160,24000,3,1.0,Stone & Stapp,,17424,1979,0,,145,Active,,,,2016-01-25,25000,,,http://www.redfin.com/AL/Talladega/407-Dumas-Ave-35160/home/80770418,Greater Alabama MLS,731440,Hometown Realty,N,Y,33.446733,-86.098125,false
MLS Listing,Multi-Family (2-4 Unit),402-404 Chinnabee St,Talladega,AL,35160,85000,5,2.0,,,,1940,0,,125,Active,,,,,85000,,,http://www.redfin.com/AL/Talladega/402-404-Chinnabee-St-35160/home/102070956,Greater Alabama MLS,734411,Hometown Realty,N,Y,33.4378283679602,-86.10726126586,false
MLS Listing,Single Family Residential,110 Dogwood Cir,Talladega,AL,35160,90000,3,2.0,Briarwood,,17859,1978,2,Garage,50,Active,,,,,90000,,,http://www.redfin.com/AL/Talladega/110-Dogwood-Cir-35160/home/86061248,Greater Alabama MLS,739669,Fields/Gossett Realty,N,Y,33.417024,-86.092218,false
MLS Listing,Vacant Land,35770 #0,Talladega,AL,35160,34900,,,,,187308,,0,,112,Active,,,,,34900,,,http://www.redfin.com/AL/Talladega/35770-Highway-21-35160/unit-0/home/102170322,Greater Alabama MLS,735085,ERA King - Lincoln,N,Y,33.4540506,-86.0510731,false
MLS Listing,Single Family Residential,433 Welch Ave,Talladega,AL,35160,54900,2,2.0,Brecon,,87,1964,0,,145,Active,,,,,54900,,,http://www.redfin.com/AL/Talladega/433-Welch-Ave-35160/home/86057082,Greater Alabama MLS,728964,RE/MAX Hometown Properties,N,Y,33.465155,-86.065616,false
MLS Listing,Single Family Residential,111 Anjill St,Talladega,AL,35160,95000,3,2.0,,,31363,1969,1,,145,Active,,,,,95000,,,http://www.redfin.com/AL/Talladega/111-Anjill-St-35160/home/86058695,Greater Alabama MLS,635438,Porter and Porter,N,Y,33.415774,-86.0866706,false
MLS Listing,Single Family Residential,729 North St,Talladega,AL,35160,59900,4,2.0,,,15681,1940,1,,145,Active,,,,,59900,,,http://www.redfin.com/AL/Talladega/729-North-St-E-35160/home/86060680,Greater Alabama MLS,598420,Hometown Realty,N,Y,33.438771,-86.087079,false
MLS Listing,Single Family Residential,699 Naff St,Talladega,AL,35160,125900,3,2.0,,,33105,2008,2,,75,Active,,,,,125900,,,http://www.redfin.com/AL/Talladega/699-Naff-Ave-35160/home/86060413,Greater Alabama MLS,737332,ERA King Real Estate Pell City,N,Y,33.468203,-86.072099,false
MLS Listing,Single Family Residential,917 Nimitz Ave,Talladega,AL,35160,79900,4,2.0,Pine Castle,,,1972,0,,145,Active,,,,2016-01-19,82900,2014-10-10,20000.0,http://www.redfin.com/AL/Talladega/917-Nimitz-Ave-35160/home/86063608,Greater Alabama MLS,628449,AlaHomes Realty,N,Y,33.4591245,-86.0768412,false
MLS Listing,Single Family Residential,1007 Nimitz Ave,Talladega,AL,35160,43000,3,2.0,Pine Castle,,9583,1970,1,,145,Active,,,,,43000,,,http://www.redfin.com/AL/Talladega/1007-Nimitz-Ave-35160/home/80784784,Greater Alabama MLS,720921,Porter and Porter,N,Y,33.459866,-86.075268,false
MLS Listing,Single Family Residential,817 Marble Quarry Rd,Talladega,AL,35160,115000,3,2.0,,,30491,1978,2,Garage,50,Active,,,,,115000,,,http://www.redfin.com/AL/Talladega/817-Marble-Quarry-Rd-35160/home/80780795,Greater Alabama MLS,739608,ERA King Real Estate Pell City,N,Y,33.400528,-86.06947,false
MLS Listing,Single Family Residential,66 Turner St,Talladega,AL,35160,56900,3,1.0,Shocco Springs,,10890,1970,1,,74,Active,,,,,56900,,,http://www.redfin.com/AL/Talladega/66-Turner-St-35160/home/80776548,Greater Alabama MLS,737461,"Dream Home Realtors, LLC",N,Y,33.444051,-86.131583,false
MLS Listing,Single Family Residential,296 Flying L Ranch Rd,Talladega,AL,35160,350000,8,8.0,,,435600,1973,2,Garage,48,Active,,,,,350000,,,http://www.redfin.com/AL/Talladega/296-Flying-L-Ranch-Rd-35160/home/103658580,Greater Alabama MLS,739818,ERA King - Lincoln,N,Y,33.4432263672352,-86.1542171984911,false
MLS Listing,Single Family Residential,315 W Parkway,Talladega,AL,35160,90000,5,2.0,Bemiston,,56628,1945,2,,139,Active,,,,,90000,,,http://www.redfin.com/AL/Talladega/315-West-Pkwy-35160/home/86067062,Greater Alabama MLS,733402,Porter and Porter,N,Y,33.407974,-86.12585,false
MLS Listing,Single Family Residential,216 Alvin St,Talladega,AL,35160,108000,3,2.0,Bemiston,,13068,1945,2,,145,Active,,,,2015-11-10,112400,,,http://www.redfin.com/AL/Talladega/216-Alvin-St-35160/home/86067091,Greater Alabama MLS,727346,Porter and Porter,N,Y,33.415287,-86.118426,true
MLS Listing,Single Family Residential,272 Creekside Cir,Talladega,AL,35160,119900,4,2.0,,,182952,1989,0,,145,Active,,,,,119900,,,http://www.redfin.com/AL/Talladega/272-Creekside-Cir-35160/home/86067177,Greater Alabama MLS,623285,Porter and Porter,N,Y,33.399343,-86.119686,true
MLS Listing,Single Family Residential,306 E Roberts Ave,Talladega,AL,35160,79500,3,1.0,Bemiston,,87,1900,1,Garage,63,Active,,,,,79500,,,http://www.redfin.com/AL/Talladega/306-E-Roberts-Ave-35160/home/80770676,Greater Alabama MLS,738452,Porter and Porter,N,Y,33.4123968,-86.1172237,false
MLS Listing,Single Family Residential,506 East St,Talladega,AL,35160,152500,3,3.0,,,26136,1838,0,,51,Active,,,,2016-02-19,155500,,,http://www.redfin.com/AL/Talladega/506-East-Pkwy-35160/home/80772544,Greater Alabama MLS,739509,Keller Williams Metro South,N,Y,33.414815,-86.119741,false
MLS Listing,Single Family Residential,1495 Taylors Mill Rd,Talladega,AL,35160,54900,3,2.5,Jones Subdivision,,37026,1975,1,Garage,32,Active,,,,,54900,2015-12-30,21600.0,http://www.redfin.com/AL/Talladega/1495-Taylors-Mill-Rd-35160/home/80790771,Greater Alabama MLS,741316,Keller Williams Realty Group,N,Y,33.416834,-86.088543,false
MLS Listing,Single Family Residential,201 Judson St,Talladega,AL,35160,59900,2,1.0,Bemiston,,11325,1929,2,,49,Active,,,,2016-02-24,69900,,,http://www.redfin.com/AL/Talladega/201-Judson-St-35160/home/86070617,Greater Alabama MLS,739754,Porter and Porter,N,Y,33.409485,-86.11833,false
MLS Listing,Single Family Residential,19 Russell Dr,Talladega,AL,35160,32000,3,1.0,,,,1970,1,,37,Active,,,,,32000,,,http://www.redfin.com/AL/Talladega/19-Russell-Dr-35160/home/103827887,Greater Alabama MLS,740730,Porter and Porter,N,Y,33.446658,-86.0885392,false
MLS Listing,Single Family Residential,104 Heath St,Talladega,AL,35160,88000,3,2.0,,,23522,1967,1,,48,Active,,,,,88000,,,http://www.redfin.com/AL/Talladega/104-Heath-St-35160/home/80770767,Greater Alabama MLS,739864,ERA King - Lincoln,N,Y,33.419379,-86.099001,false
MLS Listing,Single Family Residential,35 Oak Ln,Talladega,AL,35160,369900,4,3.5,South Oak,,174240,2001,3,Garage,145,Active,,,,,369900,,,http://www.redfin.com/AL/Talladega/35-S-Oak-Ln-35160/home/80790261,Greater Alabama MLS,620116,Keller Williams Realty Group,N,Y,33.406951,-86.110384,false
MLS Listing,Single Family Residential,509 Ave H,Talladega,AL,35160,92500,3,1.5,,,130680,1966,1,Garage,43,Active,,,,,92500,,,http://www.redfin.com/AL/Talladega/509-Avenue-H-35160/home/83455315,Greater Alabama MLS,740233,Keller Williams Metro North,N,Y,33.4442359,-86.0906399,false
MLS Listing,Single Family Residential,34767,Talladega,AL,35160,62500,2,1.5,,,48787,1965,1,,44,Active,,,,,62500,,,http://www.redfin.com/AL/Talladega/34767-Alabama-21-35160/home/103699487,Greater Alabama MLS,740114,Porter and Porter,N,Y,33.447411,-86.0673107,false
MLS Listing,Single Family Residential,502 Oak Cir,Talladega,AL,35160,89000,4,2.0,,,,1955,1,,36,Active,,,,,89000,,,http://www.redfin.com/AL/Talladega/502-Oak-Cir-35160/home/86060677,Greater Alabama MLS,740874,"Lake Haven Realty, Inc.",N,Y,33.431065,-86.095619,false
MLS Listing,Single Family Residential,514 South St E,Talladega,AL,35160,104000,3,1.0,,,,1887,0,,99,Active,,,,2016-02-26,115000,,,http://www.redfin.com/AL/Talladega/514-South-St-E-35160/home/80777616,Greater Alabama MLS,736000,Fields/Gossett Realty,N,Y,33.4342844,-86.0926836,false
MLS Listing,Single Family Residential,317 Coffee St,Talladega,AL,35160,84900,3,2.0,Silk Stocking,,13068,1890,0,,48,Active,,,,,84900,,,http://www.redfin.com/AL/Talladega/317-E-Coffee-St-35160/home/80781892,Greater Alabama MLS,739875,Porter and Porter,N,Y,33.434266,-86.096571,false
MLS Listing,Single Family Residential,108 Clairmont Dr,Talladega,AL,35160,49900,3,1.0,,,,1963,1,,17,Active,,,,,49900,,,http://www.redfin.com/AL/Talladega/108-Clairmont-Dr-35160/home/80784792,Greater Alabama MLS,742757,AlaHomes Realty,N,Y,33.42241,-86.089593,false
MLS Listing,Single Family Residential,301 Farwell St,Talladega,AL,35160,98000,3,2.0,Bemiston,,14374,1978,1,,16,Active,,,,,98000,,,http://www.redfin.com/AL/Talladega/301-Farwell-St-35160/home/86062696,Greater Alabama MLS,742822,Porter and Porter,N,Y,33.408087,-86.122478,false
MLS Listing,Single Family Residential,112 Forest Hills Cir,Talladega,AL,35160,69900,3,3.0,Forest Hills,,29185,1957,0,,16,Active,,,,,69900,,,http://www.redfin.com/AL/Talladega/112-Forest-Hills-Cir-35160/home/80778355,Greater Alabama MLS,742853,ERA King - Lincoln,N,Y,33.411844,-86.0893,false
MLS Listing,Vacant Land,0 Ironaton Rd #4,Talladega,AL,35160,240000,,,TalladegaCounty,,3489155,,0,,14,Active,,,,,240000,,,http://www.redfin.com/AL/Talladega/0-Ironaton-Rd-35160/unit-4/home/104045463,Greater Alabama MLS,743046,ERA King - Lincoln,N,Y,33.4417321,-86.0525627,false
MLS Listing,Single Family Residential,240 Mitchell Rd,Talladega,AL,35160,189900,4,3.0,,,218235,1986,0,,145,Active,,,,,189900,,,http://www.redfin.com/AL/Talladega/240-Mitchell-Rd-35160/home/86060229,Greater Alabama MLS,613195,Porter and Porter,N,Y,33.404116,-86.107466,false
MLS Listing,Single Family Residential,381 Pinehurst Dr,Talladega,AL,35160,119900,3,2.0,The Pines,,12196,1953,1,Garage,145,Active,,,,2016-03-11,124900,,,http://www.redfin.com/AL/Talladega/381-Pinehurst-Dr-35160/home/86066536,Greater Alabama MLS,726983,Hometown Realty,N,Y,33.424239,-86.106174,false
MLS Listing,Vacant Land,00 Ironaton Rd #16,Talladega,AL,35160,1044450,,,TalladegaCounty,,9099248,,0,,12,Active,,,,,1044450,,,http://www.redfin.com/AL/Talladega/0-Ironaton-Rd-35160/unit-16/home/104136211,Greater Alabama MLS,743386,ERA King - Lincoln,N,Y,33.4417321,-86.0525627,false
MLS Listing,Single Family Residential,480 Mitchell Rd,Talladega,AL,35160,290000,4,3.5,,,261360,1984,4,Garage,12,Active,,,,,290000,,,http://www.redfin.com/AL/Talladega/480-Mitchell-Rd-35160/home/80770111,Greater Alabama MLS,743459,AlaHomes Realty,N,Y,33.40446,-86.111924,false
MLS Listing,Mobile/Manufactured Home,234 Angus St,Talladega,AL,35160,75000,3,2.0,,,74052,2003,0,,51,Active,,,,2016-03-12,84900,,,http://www.redfin.com/AL/Talladega/234-Angus-Rd-35160/home/103637709,Greater Alabama MLS,739571,Keller Williams Metro South,N,Y,33.4183759,-86.1252815,false
MLS Listing,Single Family Residential,810 Elm St,Talladega,AL,35160,16900,3,1.0,,,8712,1940,1,,126,Active,,,,2016-03-14,29900,2015-10-29,12800.0,http://www.redfin.com/AL/Talladega/810-Elm-St-35160/home/101784401,Greater Alabama MLS,734331,FlatFee.com,N,Y,33.4242795,-86.0940246,false
MLS Listing,Single Family Residential,1108 Shady Lane Cir,Talladega,AL,35160,114000,3,2.5,Dellwood Estates,,,1971,2,Garage,51,Active,,,,2016-03-15,119000,,,http://www.redfin.com/AL/Talladega/1108-Shady-Lane-Cir-35160/home/80790245,Greater Alabama MLS,739534,ERA King - Lincoln,N,Y,33.417752,-86.103833,false
MLS Listing,Single Family Residential,1010 Shady Lane Cir,Talladega,AL,35160,149000,4,2.0,Dellwood Estates,,,1986,2,,33,Active,,,,2016-03-15,154000,,,http://www.redfin.com/AL/Talladega/1010-Shady-Lane-Cir-35160/home/80776445,Greater Alabama MLS,741161,ERA King - Lincoln,N,Y,33.421753,-86.104705,false
MLS Listing,Single Family Residential,505 Oak Cir,Talladega,AL,35160,89000,4,2.0,,,,1951,0,,8,Active,,,,,89000,2014-07-24,15000.0,http://www.redfin.com/AL/Talladega/505-Oak-Cir-35160/home/80788973,Greater Alabama MLS,743786,ERA King - Lincoln,N,Y,33.430676,-86.09632,false
MLS Listing,Single Family Residential,119 Roundabout Rd,Talladega,AL,35160,295000,5,2.5,,,22651,2006,2,Garage,7,Active,,,,,295000,,,http://www.redfin.com/AL/Talladega/119-Roundabout-Rd-35160/home/86060708,Greater Alabama MLS,743867,Closing Deals LLC,N,Y,33.425244,-86.082498,false
MLS Listing,Single Family Residential,104 Yester Ln,Talladega,AL,35160,134500,3,3.0,Forest Hills,,36590,1975,2,,145,Active,,,,2016-02-23,139500,,,http://www.redfin.com/AL/Talladega/104-Yester-Ln-35160/home/80787038,Greater Alabama MLS,722524,AlaHomes Realty,N,Y,33.411342,-86.091161,false
MLS Listing,Single Family Residential,604 South St E,Talladega,AL,35160,54900,4,2.5,,,27007,1925,2,Garage,120,Active,,,,2016-03-17,74900,,,http://www.redfin.com/AL/Talladega/604-South-St-E-35160/home/86065659,Greater Alabama MLS,734672,Home Realty Company,N,Y,33.43489,-86.091686,false
MLS Listing,Single Family Residential,170 Mount Olive Cir,Talladega,AL,35160,38000,3,2.0,,,87120,1980,0,,92,Active,,,,2016-03-18,48000,,,http://www.redfin.com/AL/Talladega/170-Mount-Olive-Cir-35160/home/86070348,Greater Alabama MLS,736367,Home Team Realty,N,Y,33.423354,-86.068029,false
MLS Listing,Single Family Residential,200 W Parkway Ave,Talladega,AL,35160,125000,5,3.0,Bemiston,,32670,2003,2,Garage,4,Active,,,,,125000,,,http://www.redfin.com/AL/Talladega/200-W-Parkway-Ave-35160/home/80789642,Greater Alabama MLS,744257,Porter and Porter,N,Y,33.408343,-86.122642,false
MLS Listing,Single Family Residential,401 Coffee St,Talladega,AL,35160,65000,3,1.0,,,,1920,0,,145,Active,,,,2016-03-21,68000,2013-11-01,22000.0,http://www.redfin.com/AL/Talladega/401-E-Coffee-St-35160/home/80776144,Greater Alabama MLS,626486,ERA King - Lincoln,N,Y,33.434352,-86.096259,false
MLS Listing,Single Family Residential,134 Blue Ridge Dr,Talladega,AL,35160,79900,3,2.0,,,174240,1980,2,,85,Active,,,,2016-02-04,99900,,,http://www.redfin.com/AL/Talladega/134-Blue-Ridge-Dr-35160/home/80790929,Greater Alabama MLS,736531,RE/MAX Preferred,N,Y,33.402285,-86.074848,false
MLS Listing,Single Family Residential,134 Forest Hills Cir,Talladega,AL,35160,119900,3,2.0,Forest Hills,,14374,1963,1,,1,Active,,,,,119900,2015-08-11,32260.0,http://www.redfin.com/AL/Talladega/134-Forest-Hills-Cir-35160/home/86062005,Greater Alabama MLS,744540,AlaHomes Realty,N,Y,33.411656,-86.092511,false
MLS Listing,Single Family Residential,619 Chaffee St,Talladega,AL,35160,149900,3,2.0,,,20473,1964,1,,1,Active,,,,,149900,2015-08-31,127500.0,http://www.redfin.com/AL/Talladega/619-Chaffee-St-35160/home/86061044,Greater Alabama MLS,744574,ERA King Real Estate,N,Y,33.428199,-86.088516,false
MLS Listing,Single Family Residential,902 Willman Rd,Talladega,AL,35160,24900,3,2.0,,,21780,1972,0,,1,Active,,,,,24900,,,http://www.redfin.com/AL/Talladega/902-Willman-Rd-35160/home/104232255/galmls-744647,Greater Alabama MLS,744647,Porter and Porter,N,Y,33.40573,-86.0893196,false
MLS Listing,Single Family Residential,510 W Parkway Ave,Talladega,AL,35160,134900,3,2.5,Bemiston,,17424,1947,1,,145,Active,,,,2016-03-23,139900,,,http://www.redfin.com/AL/Talladega/510-W-Parkway-Ave-35160/home/80786363,Greater Alabama MLS,732475,AlaHomes Realty,N,Y,33.407838,-86.127543,false
MLS Listing,Single Family Residential,907 Allen St,Talladega,AL,35160,39000,3,1.5,Brecon,,12632,1970,1,,145,Active,,,,2016-02-25,44000,,,http://www.redfin.com/AL/Talladega/907-Allen-St-35160/home/80776597,Greater Alabama MLS,730268,ERA King Real Estate Pell City,N,Y,33.461475,-86.077493,false
MLS Listing,Single Family Residential,806 Bankhead Rd,Talladega,AL,35160,82500,3,1.0,,,87,1950,1,,64,Active,,,,,82500,,,http://www.redfin.com/AL/Talladega/806-Bankhead-Blvd-35160/home/86057341,Greater Alabama MLS,738334,Porter and Porter,N,Y,33.450597,-86.107457,false
MLS Listing,Single Family Residential,726 Green Acres Dr,Talladega,AL,35160,72500,3,1.5,Green Acres,,,1957,2,Garage,1,Active,,,,,72500,,,http://www.redfin.com/AL/Talladega/726-Green-Acres-Dr-35160/home/80774626,Greater Alabama MLS,744525,Porter and Porter,N,Y,33.457745,-86.081244,false

