SALE TYPE,HOME TYPE,ADDRESS,CITY,STATE,ZIP,LIST PRICE,BEDS,BATHS,LOCATION,SQFT,LOT SIZE,YEAR BUILT,PARKING SPOTS,PARKING TYPE,DAYS ON MARKET,STATUS,NEXT OPEN HOUSE DATE,NEXT OPEN HOUSE START TIME,NEXT OPEN HOUSE END TIME,RECENT REDUCTION DATE,ORIGINAL LIST PRICE,LAST SALE DATE,LAST SALE PRICE,URL (SEE http://www.redfin.com/buy-a-home/comparative-market-analysis FOR INFO ON PRICING),SOURCE,LISTING ID,ORIGINAL SOURCE,FAVORITE,INTERESTED,LATITUDE,LONGITUDE,IS SHORT SALE
MLS Listing,Vacant Land,0 Weatherton Trl #2,Westover,AL,35185,37900,,,Weatherton Woods Estates,,143748,,0,,30,Active,,,,,37900,,,http://www.redfin.com/AL/Westover/0-Weatherton-Trl-35185/unit-2/home/101764052,Greater Alabama MLS,741422,RealtySouth-Inverness Office,N,Y,33.344598,-86.535471,false
MLS Listing,Vacant Land,0 Weatherton Trl #3,Westover,AL,35185,33000,,,Weatherton Woods Estates,,232174,,0,,30,Active,,,,,33000,,,http://www.redfin.com/AL/Westover/0-Weatherton-Trl-35185/unit-3/home/101763364,Greater Alabama MLS,741425,RealtySouth-Inverness Office,N,Y,33.344598,-86.535471,false
MLS Listing,Vacant Land,0 Weatherton Trl #4,Westover,AL,35185,33000,,,Weatherton Woods Estates,,131115,,0,,30,Active,,,,,33000,,,http://www.redfin.com/AL/Westover/0-Weatherton-Trl-35185/unit-4/home/101763365,Greater Alabama MLS,741427,RealtySouth-Inverness Office,N,Y,33.344598,-86.535471,false
MLS Listing,Vacant Land,0 Weatherton Trl #5,Westover,AL,35185,37900,,,Weatherton Woods Estates,,130680,,0,,30,Active,,,,,37900,,,http://www.redfin.com/AL/Westover/0-Weatherton-Trl-35185/unit-5/home/101764507,Greater Alabama MLS,741429,RealtySouth-Inverness Office,N,Y,33.344598,-86.535471,false
MLS Listing,Single Family Residential,1316 Willow Oaks Dr,Chelsea,AL,35186,269900,4,3.0,Willow Oaks,,18730,2008,2,Garage,68,Active,,,,2016-02-14,279900,2008-12-17,255000.0,http://www.redfin.com/AL/Wilsonville/1316-Willow-Oaks-Dr-35186/home/80737322,Greater Alabama MLS,738046,RE/MAX Southern Homes-280,N,Y,33.327992,-86.542306,false
MLS Listing,Single Family Residential,104 Sharpe St,Chelsea,AL,35147,154900,3,2.0,Villages Of Westover,,7405,2009,2,Garage,104,Active,,,,,154900,,,http://www.redfin.com/AL/Westover/104-Sharpe-St-35147/home/80737075,Greater Alabama MLS,735636,RE/MAX Advantage South,N,Y,33.3379317,-86.556708,false
MLS Listing,Vacant Land,No Address Provided,Westover,AL,35185,299500,,,Chelsea,,1511532,,0,,44,Active,,,,,299500,,,http://www.redfin.com/AL/Westover/26-Westover-Cir-35147/unit-026/home/103702293,Greater Alabama MLS,740161,LAH - Mountain Brook Branch,N,Y,33.362597,-86.486941,false
For-Sale-by-Owner Listing,Single Family Residential,9192 Highway 55,Harpersville,AL,35078,485000,4,3.5,Harpersville,3109,421225,2002,2,Garage,196,Active,,,,,485000,,,http://www.redfin.com/AL/Harpersville/9192-Highway-55-35078/home/80740333,ForSaleByOwner.com,24027905,ForSaleByOwner.com,N,Y,33.343568,-86.538476,false
MLS Listing,Single Family Residential,243 Christopher Cv,Sterrett,AL,35147,374900,4,4.5,Westover,,156380,2008,2,Garage,78,Active,,,,,374900,,,http://www.redfin.com/AL/Westover/243-Christopher-Cv-35147/home/80736288,Greater Alabama MLS,736952,UNU Group,N,Y,33.3633434,-86.481496,false
MLS Listing,Single Family Residential,122 Willow Lake Ln,Wilsonville,AL,35186,220385,3,2.0,Willow Oaks,,13503,2015,2,Garage,145,Active,,,,,220385,,,http://www.redfin.com/AL/Wilsonville/122-Willow-Lake-LN-35186/unit-121/home/101749941,Greater Alabama MLS,725281,"Ingram & Associates, LLC",N,Y,33.3305279,-86.5449942,false
MLS Listing,Single Family Residential,1381 Willow Oaks Dr,Wilsonville,AL,35186,259900,4,2.5,Willow Oaks,,20037,2015,2,Garage,145,Active,,,,,259900,,,http://www.redfin.com/AL/Wilsonville/1381-Willow-Oaks-DR-35186/unit-325/home/101749254,Greater Alabama MLS,732034,"Ingram & Associates, LLC",N,Y,33.3282249,-86.5423289,false
MLS Listing,Single Family Residential,1363 Willow Oaks Dr,Wilsonville,AL,35186,304900,4,3.5,Willow Oaks,,35719,2015,3,Garage,115,Active,,,,,294900,,,http://www.redfin.com/AL/Wilsonville/1363-Willow-Oaks-Dr-35186/home/102139778,Greater Alabama MLS,734901,"Ingram & Associates, LLC",N,Y,33.3282246,-86.5423289,false
MLS Listing,Single Family Residential,7980,Sterrett,AL,35147,299900,3,2.0,,,133729,1969,1,Garage,145,Active,,,,,299900,,,http://www.redfin.com/AL/Sterrett/7980-Sterrett-Dr-35147/home/102639725,Greater Alabama MLS,723572,RE/MAX Classic,N,Y,33.3587493561618,-86.550291836262,false
MLS Listing,Single Family Residential,89 Deerwood Lake Dr,Harpersville,AL,35078,599000,3,2.5,Deerwood Lake,,86248,2000,4,Garage,145,Active,,,,,599000,,,http://www.redfin.com/AL/Harpersville/89-Deerwood-Lake-Dr-35078/home/101751392,Greater Alabama MLS,625478,RE/MAX Southern Homes-280,N,Y,33.367973,-86.4784896,false
MLS Listing,Vacant Land,Luquire road Luquire Ln Unit Luquire survey (Unable to map),Sterrett,AL,35147,12000,,,Harpersville/Sterrett/Vandiver/Vincent,,28314,,0,,145,Active,,,,,12000,,,http://www.redfin.com/AL/Sterrett/Luquire-road-Luquire-Ln-35147/unit-Luquire-survey/home/101764177,Greater Alabama MLS,725040,RE/MAX Southern Homes-280,N,Y,,,false
MLS Listing,Single Family Residential,100 Hillside Ln,Westover,AL,35147,148500,3,2.0,Westover,,20473,1977,0,,68,Active,,,,,148500,,,http://www.redfin.com/AL/Sterrett/100-Hillside-Ln-35147/home/80692135,Greater Alabama MLS,737979,Keller Williams Metro South,N,Y,33.358833,-86.513231,false
MLS Listing,Single Family Residential,8500,Westover,AL,35147,165000,4,2.0,,,130680,1994,0,,62,Active,,,,,165000,,,http://www.redfin.com/AL/Westover/8500-Al-Youth-Dr-35147/home/103047996,Greater Alabama MLS,738598,RE/MAX Classic,N,Y,33.3576317131519,-86.5516481548548,false
MLS Listing,Vacant Land,140 Crest Dr Lot 8,Sterrett,AL,35147,24900,,,Carden Crest,,30927,,0,,145,Active,,,,,21900,,,http://www.redfin.com/AL/Westover/140-Crest-Dr-35147/unit-8/home/101765917,Greater Alabama MLS,621824,RE/MAX Advantage,N,Y,33.3591611,-86.5677159,false
MLS Listing,Vacant Land,145 Crest Dr Lot 22,Sterrett,AL,35147,20900,,,Carden Crest,,20037,,0,,145,Active,,,,,16900,,,http://www.redfin.com/AL/Westover/145-Crest-Dr-35147/unit-22/home/101765918,Greater Alabama MLS,621825,RE/MAX Advantage,N,Y,33.359384,-86.5677329,false
MLS Listing,Vacant Land,121 Crest Dr Lot 28,Sterrett,AL,35147,23900,,,Carden Crest,,33105,,0,,145,Active,,,,,17500,,,http://www.redfin.com/AL/Westover/121-Crest-Dr-35147/unit-28/home/101765919,Greater Alabama MLS,621826,RE/MAX Advantage,N,Y,33.357649,-86.5674564,false
MLS Listing,Vacant Land,113 Crest Dr Lot 30,Sterrett,AL,35147,25900,,,Carden Crest,,22651,,0,,145,Active,,,,,21900,,,http://www.redfin.com/AL/Westover/113-Crest-Dr-35147/unit-30/home/101765920,Greater Alabama MLS,621827,RE/MAX Advantage,N,Y,33.3572419,-86.5675471,false
MLS Listing,Single Family Residential,228 Lorrin Ln,Sterrett,AL,35147,200050,3,2.0,Villages Of Westover,,,2015,2,Garage,145,Active,,,,,199900,,,http://www.redfin.com/AL/Sterrett/228-Lorrin-LN-35147/unit-41/home/101768665,Greater Alabama MLS,732925,"Ingram & Associates, LLC",N,Y,33.338616,-86.5575978,false
MLS Listing,Single Family Residential,104 Love Ln,Sterrett,AL,35147,205975,3,2.0,Villages Of Westover,,,2015,2,Garage,145,Active,,,,,204900,,,http://www.redfin.com/AL/Sterrett/104-Love-Ln-35147/unit-81/home/101750795,Greater Alabama MLS,732686,"Ingram & Associates, LLC",N,Y,33.3381340652704,-86.5562555193901,false
MLS Listing,Single Family Residential,3668 Westover Rd,Westover,AL,35147,154900,3,2.0,,,375922,2000,3,Garage,127,Active,,,,2016-03-04,174900,2004-06-10,173500.0,http://www.redfin.com/AL/Sterrett/3668-Westover-Rd-35147/home/80763285,Greater Alabama MLS,734270,Advanced Realty,N,Y,33.364463,-86.5039717,false
MLS Listing,Vacant Land,0 Lakewood Dr #1,Westover,AL,35185,78000,,,,,274863,,0,,145,Active,,,,,78000,,,http://www.redfin.com/AL/Westover/0-Lakewood-Dr-35185/unit-1/home/101765680,Greater Alabama MLS,618983,Keller Williams Realty Hoover,N,Y,33.37076,-86.495138,false
MLS Listing,Single Family Residential,168 Willow View Ln,Westover,AL,35186,199500,3,2.0,Westover,,18730,2012,2,Garage,27,Active,,,,2016-03-23,210000,2013-06-20,179900.0,http://www.redfin.com/AL/Wilsonville/168-Willow-View-Ln-35186/home/80737409,Greater Alabama MLS,741792,RealtySouth-Inverness Office,N,Y,33.3253916,-86.5441434,false
MLS Listing,Single Family Residential,145 Cottage Ln,Sterrett,AL,35147,362000,4,4.5,Chelsea Square,,118047,2007,2,Garage,145,Active,,,,2016-03-10,370000,2014-03-13,357500.0,http://www.redfin.com/AL/Sterrett/145-Cottage-Ln-35147/home/80723440,Greater Alabama MLS,732878,Lucas and Associates,N,Y,33.352513,-86.56602,false
MLS Listing,Vacant Land,2085 Westover Rd #0,Westover,AL,35147,219900,,,,,1611720,,0,,68,Active,,,,2016-03-10,239900,,,http://www.redfin.com/AL/Westover/2085-Westover-Rd-35147/unit-1/home/101763601,Greater Alabama MLS,737995,"Weichert Realtors, Lowe Realty",N,Y,33.362037,-86.49787,false
MLS Listing,Single Family Residential,11575,Westover,AL,35147,915000,4,5.5,Westover,,914760,2001,4,Garage,145,Active,,,,,915000,,,http://www.redfin.com/AL/Westover/11575-Al-Youth-Dr-35147/home/101750455,Greater Alabama MLS,732622,FlatFee.com,N,Y,33.3776698261499,-86.527427136898,false
MLS Listing,Vacant Land,126 Crest Dr #0,Sterrett,AL,35147,29000,,,Carden Crest,,16552,,0,,145,Active,,,,,29000,,,http://www.redfin.com/AL/Sterrett/126-Crest-DR-35147/unit-0/home/101762666,Greater Alabama MLS,555538,Down South Realty Inc,N,Y,33.3580413,-86.5672502,false
MLS Listing,Single Family Residential,152 Crest Dr,Westover,AL,35147,322900,4,3.5,Carden Crest,,17859,2009,2,Garage,65,Active,,,,,322900,,,http://www.redfin.com/AL/Westover/152-Crest-Dr-35147/home/80729907,Greater Alabama MLS,738186,ARC Realty,N,Y,33.359857,-86.567255,false
MLS Listing,Single Family Residential,149 Crest Dr,Chelsea,AL,35147,321000,4,2.5,Carden Crest,,7405,2008,2,Garage,7,Active,,,,,321000,2009-12-01,279000.0,http://www.redfin.com/AL/Westover/149-Crest-Dr-35147/home/80729915,Greater Alabama MLS,743865,Closing Deals LLC,N,Y,33.35965,-86.56818,false
MLS Listing,Vacant Land,No Address Provided,Westover,AL,35147,189000,,,,,392040,,0,,145,Active,,,,,189000,,,http://www.redfin.com/AL/Westover/Unknown-Unknown/unit-9-AC/home/101763878,Greater Alabama MLS,625858,"Canterbury Realty Group, LLC",N,Y,33.354921,-86.57064,false

