SALE TYPE,HOME TYPE,ADDRESS,CITY,STATE,ZIP,LIST PRICE,BEDS,BATHS,LOCATION,SQFT,LOT SIZE,YEAR BUILT,PARKING SPOTS,PARKING TYPE,DAYS ON MARKET,STATUS,NEXT OPEN HOUSE DATE,NEXT OPEN HOUSE START TIME,NEXT OPEN HOUSE END TIME,RECENT REDUCTION DATE,ORIGINAL LIST PRICE,LAST SALE DATE,LAST SALE PRICE,URL (SEE http://www.redfin.com/buy-a-home/comparative-market-analysis FOR INFO ON PRICING),SOURCE,LISTING ID,ORIGINAL SOURCE,FAVORITE,INTERESTED,LATITUDE,LONGITUDE,IS SHORT SALE
MLS Listing,Vacant Land,August Dr Unit 41.8,Columbiana,AL,35051,115000,,,Columbiana/Westover/Wilsonville,,1820807,,0,,87,Active,,,,,115000,,,http://www.redfin.com/AL/Columbiana/418-August-Rd-35051/unit-418/home/102301406,Greater Alabama MLS,736467,RealtySouth-Shelby Office,N,Y,33.1486592,-86.6460893,false
MLS Listing,Vacant Land,210 Briarwood Dr #3,Columbiana,AL,35051,29900,,,Hidden Springs,,23086,,0,,145,Active,,,,,29900,,,http://www.redfin.com/AL/Columbiana/210-Briarwood-DR-35051/unit-3/home/101764768,Greater Alabama MLS,601468,"Ellis Properties, Inc.",N,Y,33.173836,-86.5972487,false
MLS Listing,Vacant Land,206 Lee Dr #0,Columbiana,AL,35051,54900,,,,,52272,,0,,145,Active,,,,,54900,,,http://www.redfin.com/AL/Columbiana/206-Hub-Lee-RD-35051/unit-0/home/101764857,Greater Alabama MLS,633863,Down South Realty Inc,N,Y,33.1868798,-86.6131377,false
MLS Listing,Vacant Land,Mooney Rd Unit 2 LOTS,Columbiana,AL,35051,18000,,,,,,,0,,145,Active,,,,,18000,,,http://www.redfin.com/AL/Columbiana/Mooney-Rd-35051/unit-2-LOTS/home/101764262,Greater Alabama MLS,568463,Down South Realty Inc,N,Y,33.159774,-86.58603,false
MLS Listing,Single Family Residential,128 Phillips Cir,Columbiana,AL,35051,87700,2,1.0,Columbiana,,13939,1959,0,,145,Active,,,,,87700,2015-04-29,35000.0,http://www.redfin.com/AL/Columbiana/128-Phillips-Cir-35051/home/80756650,Greater Alabama MLS,723118,Down South Realty Inc,N,Y,33.179927,-86.61828,false
MLS Listing,Vacant Land,108 Carter Ln Unit 0.22 AC,Columbiana,AL,35051,19500,,,,,,,0,,134,Active,,,,,19500,,,http://www.redfin.com/AL/Columbiana/108-Carter-Ln-35051/unit-022AC/home/101839091,Greater Alabama MLS,733760,RE/MAX Advantage,N,Y,33.1800687,-86.6056378,false
MLS Listing,Single Family Residential,1181 W,Columbiana,AL,35051,174000,3,2.0,,,152460,1955,3,,145,Active,,,,,174000,,,http://www.redfin.com/AL/Columbiana/1181-Alabama-Ave-35051/home/101751137,Greater Alabama MLS,730399,Down South Realty Inc,N,Y,33.1652717590332,-86.6223907470703,false
MLS Listing,Single Family Residential,220 Billy Wayne Acres,Columbiana,AL,35051,569000,3,2.0,,,3245220,1986,4,Garage,145,Active,,,,,569000,,,http://www.redfin.com/AL/Columbiana/220-Billy-Wayne-Acres-35051/home/80707905,Greater Alabama MLS,631653,RE/MAX Southern Homes-280,N,Y,33.194419,-86.648317,false
MLS Listing,Single Family Residential,102 Donaldson Rd,Columbiana,AL,35051,118000,4,2.0,,,63162,1985,1,,145,Active,,,,,118000,,,http://www.redfin.com/AL/Columbiana/102-Donaldson-Rd-35051/home/80761532,Greater Alabama MLS,626594,"Realty Source, LLC",N,Y,33.150166,-86.655711,false
MLS Listing,Single Family Residential,70 Golden Rd,Columbiana,AL,35051,169900,3,3.0,,,260924,1993,1,,145,Active,,,,,169900,,,http://www.redfin.com/AL/Columbiana/70-Golden-Rd-35051/home/101751302,Greater Alabama MLS,590241,Down South Realty Inc,N,Y,33.1606094,-86.6569552,false
MLS Listing,Vacant Land,1960 #1,Columbiana,AL,35051,46800,,,Columbiana/Westover/Wilsonville,,522720,,0,,145,Active,,,,,46800,,,http://www.redfin.com/AL/Columbiana/1960-E-1st-St-35051/unit-1/home/101762837,Greater Alabama MLS,728682,RE/MAX Southern Homes-280,N,Y,33.1469573974609,-86.5600814819336,false
For-Sale-by-Owner Listing,Mobile/Manufactured Home,121 Nearest Lane (Hwy 26) (Unable to map),Columbiana,AL,35051,59900,3,2.0,Columbiana,,38333,1981,0,,196,Active,,,,,59900,,,http://www.redfin.com/AL/Columbiana/121-Nearest-Lane-Hwy-26-35051/home/101840097,ForSaleByOwner.com,24013031,ForSaleByOwner.com,N,Y,,,false
MLS Listing,Single Family Residential,342 Jonesboro Cir,Columbiana,AL,35051,225900,3,2.0,,,119790,2014,0,,121,Active,,,,,225900,,,http://www.redfin.com/AL/Columbiana/342-Jonesboro-Cir-35051/home/102083528,Greater Alabama MLS,734587,Johnson & Associates Realty,N,Y,33.1638742,-86.6145244,false
MLS Listing,Vacant Land,0 Chelsea Rd #0,Columbiana,AL,35051,59000,,,,,157251,,0,,145,Active,,,,,59000,,,http://www.redfin.com/AL/Columbiana/0-Chelsea-RD-35051/unit-0/home/101763905,Greater Alabama MLS,632951,Down South Realty Inc,N,Y,33.1869598,-86.6070561,false
MLS Listing,Vacant Land,Stillwood Dr #1,Columbiana,AL,35051,29000,,,Stillwood Estates,,50529,,0,,145,Active,,,,,29000,,,http://www.redfin.com/AL/Columbiana/Stillwood-Dr-35051/unit-1/home/101765260,Greater Alabama MLS,635716,RE/MAX Southern Homes-280,N,Y,33.181891,-86.576361,false
MLS Listing,Vacant Land,0 Lester St Unit 0.3 AC,Columbiana,AL,35051,19900,,,,,,,0,,145,Active,,,,,19900,,,http://www.redfin.com/AL/Columbiana/0-Lester-St-35051/unit-03-AC/home/101765886,Greater Alabama MLS,612833,Down South Realty Inc,N,Y,33.181475,-86.608563,false
MLS Listing,Vacant Land,Luquire Lot Luquire Ln Unit trac,Columbiana,AL,35147,16000,,,Harpersville/Sterrett/Vandiver/Vincent,,15681,,0,,145,Active,,,,,16000,,,http://www.redfin.com/AL/Columbiana/Luquire-Lot-Luquire-Ln-35147/unit-trac/home/101765997,Greater Alabama MLS,724754,RE/MAX Southern Homes-280,N,Y,33.1575202941895,-86.5652313232422,false
MLS Listing,Vacant Land,Atchison Trc Lot 4 (Unable to map),Columbiana,AL,35051,116000,,,,,1742400,,0,,145,Active,,,,,116000,,,http://www.redfin.com/AL/Columbiana/Atchison-Trc-35051/unit-4/home/101762976,Greater Alabama MLS,618775,Eddleman Realty LLC,N,Y,,,false
MLS Listing,Vacant Land,No Address Provided,Columbiana,AL,35096,244500,,,,,958320,,0,,34,Active,,,,,244500,,,http://www.redfin.com/AL/Columbiana/Washington-St-35051/unit-0/home/101762794,Greater Alabama MLS,741054,ARC Realty,N,Y,33.1773229,-86.6006616,false
MLS Listing,Single Family Residential,109 Highland Dr,Columbiana,AL,35051,143900,3,2.0,Highlands,,28314,1976,1,,32,Active,,,,,143900,,,http://www.redfin.com/AL/Columbiana/109-Highland-Dr-35051/home/103931795,Greater Alabama MLS,741319,RE/MAX Southern Homes-280,N,Y,33.1930179,-86.5919373,false
MLS Listing,Vacant Land,000 #000,Columbiana,AL,35051,325000,,,,,2022490,,0,,28,Active,,,,,325000,,,http://www.redfin.com/AL/Columbiana/Alabama-Ave-35051/unit-0/home/101765943,Greater Alabama MLS,741593,Keller Williams Metro South,N,Y,33.187036,-86.580462,false
MLS Listing,Single Family Residential,125 Hickory St,Columbiana,AL,35051,645000,5,4.5,Columbiana,,696960,1994,3,Garage,44,Active,,,,2016-03-01,725000,,,http://www.redfin.com/AL/Columbiana/125-Hickory-St-35051/home/80707358,Greater Alabama MLS,724939,UNU Group,N,Y,33.182982,-86.5709325,false
MLS Listing,Single Family Residential,323 E,Columbiana,AL,35051,124000,3,2.0,,,36590,1965,0,,7,Active,,,,,124000,,,http://www.redfin.com/AL/Columbiana/323-Columbiana-Sq-35051/home/104208116,Greater Alabama MLS,743859,RE/MAX Southern Homes-280,N,Y,33.182123,-86.6140962,false
MLS Listing,Single Family Residential,505,Columbiana,AL,35051,149900,4,2.0,,,43560,1945,3,Garage,2,Active,,,,,149900,,,http://www.redfin.com/AL/Columbiana/505-Columbiana-Sq-35051/home/104222942,Greater Alabama MLS,744399,Down South Realty Inc,N,Y,33.1820064,-86.6138077,false
MLS Listing,Single Family Residential,102 Pine Tree Cir,Columbiana,AL,35051,135000,3,2.0,Briarwood,,20037,1972,1,,103,Active,,,,2016-03-01,139000,,,http://www.redfin.com/AL/Columbiana/102-Pine-Tree-Cir-35051/home/102249889,Greater Alabama MLS,735768,"Weichert Realtors, Lowe Realty",N,Y,33.1738166809082,-86.6032257080078,false
For-Sale-by-Owner Listing,Single Family Residential,116 Arlington St,Columbiana,AL,35051,359900,5,4.0,Columbiana,4400,,1994,2,Garage,17,Active,,,,,359900,2007-04-03,372000.0,http://www.redfin.com/AL/Columbiana/116-Arlington-St-35051/home/80756479,ForSaleByOwner.com,24059407,ForSaleByOwner.com,N,Y,33.177719,-86.597721,false
MLS Listing,Single Family Residential,102 E,Columbiana,AL,35051,166500,3,2.0,,,,1939,1,,16,Active,,,,,166500,,,http://www.redfin.com/AL/Columbiana/102-Alabama-Ave-35051/home/104012676,Greater Alabama MLS,742791,RE/MAX Southern Homes-280,N,Y,33.1809413163941,-86.6002140634766,false
MLS Listing,Single Family Residential,106 Pine Tree Cir,Columbiana,AL,35051,129900,3,2.0,Briarwood,,19602,1970,1,,142,Active,,,,2016-03-16,149900,,,http://www.redfin.com/AL/Columbiana/106-Pine-Tree-Cir-35051/home/102076998,Greater Alabama MLS,733038,RealtySouth-Inverness Office,N,Y,33.1745488,-86.6029139,false
MLS Listing,Single Family Residential,207 E College St,Columbiana,AL,35051,192500,4,4.0,Columbiana,,19602,1910,1,,44,Active,,,,2016-03-16,199000,2014-07-28,170000.0,http://www.redfin.com/AL/Columbiana/207-E-College-St-35051/home/80756525,Greater Alabama MLS,740180,"Realty Source, LLC",N,Y,33.178561,-86.604306,false
MLS Listing,Vacant Land,505 #1,Columbiana,AL,35051,119000,,,Columbiana/Westover/Wilsonville,,479160,,0,,2,Active,,,,,119000,,,http://www.redfin.com/AL/Columbiana/505-E-1st-St-35051/unit-1/home/104223046,Greater Alabama MLS,744400,Down South Realty Inc,N,Y,33.1651543825865,-86.6029521077871,false
MLS Listing,Single Family Residential,807 Mooney Rd,Columbiana,AL,35051,88500,3,2.0,,,45738,1973,0,,79,Active,,,,2016-03-20,100000,,,http://www.redfin.com/AL/Columbiana/807-Mooney-Rd-35051/home/80708407,Greater Alabama MLS,736901,Real Estate Assoc-Branch 1,N,Y,33.162706,-86.5884,false

