SALE TYPE,HOME TYPE,ADDRESS,CITY,STATE,ZIP,LIST PRICE,BEDS,BATHS,LOCATION,SQFT,LOT SIZE,YEAR BUILT,PARKING SPOTS,PARKING TYPE,DAYS ON MARKET,STATUS,NEXT OPEN HOUSE DATE,NEXT OPEN HOUSE START TIME,NEXT OPEN HOUSE END TIME,RECENT REDUCTION DATE,ORIGINAL LIST PRICE,LAST SALE DATE,LAST SALE PRICE,URL (SEE http://www.redfin.com/buy-a-home/comparative-market-analysis FOR INFO ON PRICING),SOURCE,LISTING ID,ORIGINAL SOURCE,FAVORITE,INTERESTED,LATITUDE,LONGITUDE,IS SHORT SALE
MLS Listing,Vacant Land,2105 Ridgebrook Rd #66,Fultondale,AL,35068,24900,,,Fultondale/Gardendale/MtOlive,,30491,,0,,99,Active,,,,,24900,,,http://www.redfin.com/AL/Fultondale/2105-Ridgebrook-Rd-35068/unit-66/home/102269142,Greater Alabama MLS,735982,RE/MAX Northern Properties,N,Y,33.617287,-86.812869,false
MLS Listing,Single Family Residential,3621 Burlington Dr,Fultondale,AL,35068,245535,5,3.5,Black Creek Station,,,2015,2,Garage,92,Active,,,,,245535,,,http://www.redfin.com/AL/Fultondale/3621-Burlington-DR-35068/unit-151/home/101749216,Greater Alabama MLS,736360,"Ingram & Associates, LLC",N,Y,33.6104464,-86.7929513,false
MLS Listing,Single Family Residential,3642 Burlington Dr,Fultondale,AL,35068,259900,4,2.5,Black Creek Station,,,2016,2,Garage,91,Active,,,,,259900,,,http://www.redfin.com/AL/Fultondale/3642-Burlington-Dr-35068/home/102290092,Greater Alabama MLS,736389,"Ingram & Associates, LLC",N,Y,33.610425,-86.7929239,false
MLS Listing,Single Family Residential,3654 Burlington Dr,Fultondale,AL,35068,196000,3,2.0,Black Creek Station,,,2016,2,Garage,92,Active,,,,,196000,,,http://www.redfin.com/AL/Fultondale/3654-Burlington-Dr-35068/home/102288597,Greater Alabama MLS,736349,"Ingram & Associates, LLC",N,Y,33.610425,-86.7929239,false
MLS Listing,Single Family Residential,3626 Grand Central Ave,Fultondale,AL,35068,225000,3,2.0,Black Creek Station,,,2016,2,Garage,81,Active,,,,,225000,,,http://www.redfin.com/AL/Fultondale/3626-Grand-Central-Ave-35068/home/102395789,Greater Alabama MLS,736753,"Ingram & Associates, LLC",N,Y,33.6097272,-86.7921201,false
MLS Listing,Single Family Residential,3018 Moonlight Ln,Fultondale,AL,35068,129900,3,2.0,Fox Hollow,,20473,1978,2,Garage,97,Active,,,,,129900,,,http://www.redfin.com/AL/Fultondale/3018-Moonlight-Ln-35068/home/80875407,Greater Alabama MLS,736139,Keller Williams Metro North,N,Y,33.628679,-86.795666,false
MLS Listing,Single Family Residential,5732 34th St N,Birmingham,AL,35217,82000,3,2.0,Lewisburg Gardens,,87,1958,1,Garage,145,Active,,,,,82000,,,http://www.redfin.com/AL/Birmingham/5732-34th-St-N-35207/home/80898178,Greater Alabama MLS,732255,RE/MAX Northern Properties,N,Y,33.581092,-86.799136,false
MLS Listing,Single Family Residential,3429 Chapel Hill Pkwy #146,Fultondale,AL,35068,299900,5,3.0,Chapel Hills,,,2015,3,Garage,145,Active,,,,,299900,,,http://www.redfin.com/AL/Fultondale/3429-Chapel-Hills-Pkwy-35068/unit-146/home/101748668,Greater Alabama MLS,729893,RE/MAX First Choice,N,Y,33.599622,-86.818038,false
MLS Listing,Single Family Residential,215 Main St,Fultondale,AL,35068,134900,3,2.0,Fultondale,,32670,1954,0,,145,Active,,,,,134900,,,http://www.redfin.com/AL/Fultondale/215-Main-St-35068/home/101749488,Greater Alabama MLS,732132,Keller Williams Metro North,N,Y,33.601899,-86.80006,false
MLS Listing,Vacant Land,817 Park Ln #176,Fultondale,AL,35068,10000,,,Fultondale Estates,,20603,,0,,145,Active,,,,,10000,,,http://www.redfin.com/AL/Fultondale/817-Park-Ln-35068/unit-176/home/101762799,Greater Alabama MLS,633476,Keller Williams Metro North,N,Y,33.603453,-86.788425,false
MLS Listing,Vacant Land,1304 4th Ave #0,Fultondale,AL,35068,9000,,,,,12763,,0,,145,Active,,,,,9000,,,http://www.redfin.com/AL/Fultondale/1304-4th-Ave-35068/unit-0/home/101763611,Greater Alabama MLS,611125,RealtySouth-Northern Office,N,Y,33.603126,-86.802064,false
MLS Listing,Vacant Land,3080 Five Mile Creek Rd #3080,Fultondale,AL,35068,69900,,,Fultondale/Gardendale/MtOlive,,426888,,0,,145,Active,,,,,69900,,,http://www.redfin.com/AL/Fultondale/3080-5-Mile-Creek-Rd-35068/unit-3080/home/101765087,Greater Alabama MLS,724674,RealtySouth-MB-Crestline,N,Y,33.595857,-86.845626,false
MLS Listing,Vacant Land,3230 Chapel Hill Pkwy #429,Fultondale,AL,35068,19900,,,Chapel Hills,,26136,,0,,145,Active,,,,,19900,,,http://www.redfin.com/AL/Fultondale/3230-Chapel-Hills-Pkwy-35068/unit-429/home/101765692,Greater Alabama MLS,621775,"Ingram & Associates, LLC",N,Y,33.592817,-86.830961,false
MLS Listing,Vacant Land,1317 2nd Ave #0,Fultondale,AL,35068,11900,,,Glendale,,17424,,0,,145,Active,,,,,11900,,,http://www.redfin.com/AL/Fultondale/1317-2nd-Ave-35068/unit-0/home/101765908,Greater Alabama MLS,619536,"Harris Doyle Properties, LLC",N,Y,33.601808,-86.802856,false
MLS Listing,Vacant Land,3227 Chapel Hill Pkwy #440,Fultondale,AL,35068,19900,,,Chapel Hills,,13068,,0,,145,Active,,,,,19900,,,http://www.redfin.com/AL/Fultondale/3227-Chapel-Hills-Pkwy-35068/unit-440/home/101765912,Greater Alabama MLS,621781,"Ingram & Associates, LLC",N,Y,33.592389,-86.830153,false
MLS Listing,Vacant Land,3242 Chapel Hill Pkwy #426,Fultondale,AL,35068,19900,,,Chapel Hills,,27007,,0,,145,Active,,,,,19900,,,http://www.redfin.com/AL/Fultondale/3242-Chapel-Hills-Pkwy-35068/unit-426/home/101765911,Greater Alabama MLS,621780,"Ingram & Associates, LLC",N,Y,33.593488,-86.830552,false
MLS Listing,Vacant Land,1329 8th Ave #0,Fultondale,AL,35068,49900,,,Fultondale/Gardendale/MtOlive,,43,,0,,103,Active,,,,,49900,,,http://www.redfin.com/AL/Fultondale/1329-8th-Ave-35068/unit-0/home/102252027,Greater Alabama MLS,735778,Webb & Company Realty,N,Y,33.607248,-86.803199,false
MLS Listing,Single Family Residential,721 Park Ln,Fultondale,AL,35068,109900,3,1.0,Fultondale Estates,,29185,1957,1,,103,Active,,,,,109900,,,http://www.redfin.com/AL/Fultondale/721-Park-Ln-35068/home/80879751,Greater Alabama MLS,735775,RealtySouth-Northern Office,N,Y,33.60108,-86.788343,false
MLS Listing,Single Family Residential,620 Park Ln,Fultondale,AL,35068,84900,3,1.0,Fultondale Estates,,34412,1957,0,,145,Active,,,,,84900,,,http://www.redfin.com/AL/Fultondale/620-Park-Ln-35068/home/80880194,Greater Alabama MLS,607331,RE/MAX Advantage,N,Y,33.599062,-86.790824,false
MLS Listing,Single Family Residential,1415 Head Rd,Fultondale,AL,35068,84900,3,1.0,Bell Brook,,48351,1950,1,Garage,145,Active,,,,,84900,,,http://www.redfin.com/AL/Coalburg/1415-Head-Rd-35068/home/80886908,Greater Alabama MLS,730759,RE/MAX Northern Properties,N,Y,33.612287,-86.803821,false
MLS Listing,Single Family Residential,1832 Maplecrest Ln,Fultondale,AL,35068,129900,3,1.5,Greenbriar Estates,,18295,1963,4,Garage,145,Active,,,,,129900,,,http://www.redfin.com/AL/Fultondale/1832-Maplecrest-Ln-35068/home/80887171,Greater Alabama MLS,635036,Charles Poe Realty,N,Y,33.610508,-86.821978,false
MLS Listing,Single Family Residential,2612 Walker St,Fultondale,AL,35068,41200,3,2.0,Walker Springs,,50529,1954,0,,145,Active,,,,,41200,,,http://www.redfin.com/AL/Fultondale/2612-Walker-St-35068/home/80887722,Greater Alabama MLS,619539,RE/MAX Advantage,N,Y,33.605206,-86.823048,true
MLS Listing,Vacant Land,3692 Vanderbilt Way #323,Fultondale,AL,35068,40000,,,Black Creek Station The Crest,,28314,,0,,145,Active,,,,,40000,,,http://www.redfin.com/AL/Fultondale/3692-Vanderbilt-Way-35068/unit-323/home/101762752,Greater Alabama MLS,625045,RE/MAX Northern Properties,N,Y,33.608363,-86.790583,false
MLS Listing,Vacant Land,"3690 Walker Chapel Rd Lot 3, and 12",Fultondale,AL,35068,29900,,,Fultondale/Gardendale/MtOlive,,95832,,0,,145,Active,,,,,29900,,,http://www.redfin.com/AL/Fultondale/3690-Walker-Chapel-Rd-35068/unit-3AND12/home/101763064,Greater Alabama MLS,730841,ARC Realty,N,Y,33.6122808,-86.8373201,false
MLS Listing,Vacant Land,3684 Vanderbilt Way #325,Fultondale,AL,35068,40000,,,Black Creek Station The Crest,,25700,,0,,145,Active,,,,,40000,,,http://www.redfin.com/AL/Fultondale/3684-Vanderbilt-Way-35068/unit-325/home/101764809,Greater Alabama MLS,625372,RE/MAX Northern Properties,N,Y,33.607866,-86.790181,false
MLS Listing,Vacant Land,3657 Vanderbilt Way #346,Fultondale,AL,35068,34000,,,Black Creek Station The Crest,,11761,,0,,145,Active,,,,,34000,,,http://www.redfin.com/AL/Fultondale/3657-Vanderbilt-Way-35068/unit-346/home/101764810,Greater Alabama MLS,625373,RE/MAX Northern Properties,N,Y,33.608518,-86.788647,false
MLS Listing,Vacant Land,3448 Burlington Dr #295,Fultondale,AL,35068,34000,,,Black Creek Station,,23958,,0,,145,Active,,,,,34000,,,http://www.redfin.com/AL/Fultondale/3448-Burlington-Dr-35068/unit-295/home/101764811,Greater Alabama MLS,625376,RE/MAX Northern Properties,N,Y,33.605635,-86.795133,false
MLS Listing,Vacant Land,3669 Vanderbilt Way #348,Fultondale,AL,35068,34000,,,Black Creek Station The Crest,,14374,,0,,145,Active,,,,,34000,,,http://www.redfin.com/AL/Fultondale/3669-Vanderbilt-Way-35068/unit-348/home/101764820,Greater Alabama MLS,625411,RE/MAX Northern Properties,N,Y,33.608426,-86.78905,false
MLS Listing,Single Family Residential,3305 Carousel Dr,Fultondale,AL,35068,128900,3,2.0,Carousel Park,,14810,1982,2,Garage,129,Active,,,,,128900,2008-12-10,93000.0,http://www.redfin.com/AL/Coalburg/3305-Carousel-Dr-35068/home/80885946,Greater Alabama MLS,733993,ERA King - Birmingham,N,Y,33.63093,-86.809802,false
MLS Listing,Vacant Land,2830 Walker Ct Lot 1,Fultondale,AL,35217,15000,,,Mccarter Creek,,,,0,,145,Active,,,,,15000,,,http://www.redfin.com/AL/Birmingham/2830-Walker-Ct-35217/unit-1/home/101763604,Greater Alabama MLS,604820,Home Places Realty,N,Y,33.6238853,-86.7969795,false
MLS Listing,Vacant Land,879 Lual Dr Lot 12,Fultondale,AL,35217,20000,,,Mccarter Creek,,,,0,,145,Active,,,,,20000,,,http://www.redfin.com/AL/Birmingham/879-Lual-Dr-35217/unit-12/home/101763605,Greater Alabama MLS,604822,Home Places Realty,N,Y,33.623913,-86.795972,false
MLS Listing,Vacant Land,3061 Teresa Dr #0,Fultondale,AL,35217,4995,,,Town & Country Estates,,16552,,0,,145,Active,,,,,4995,,,http://www.redfin.com/AL/Birmingham/3061-Teresa-Dr-35217/unit-0/home/101763979,Greater Alabama MLS,485503,Relfe-Welden Real Estate,N,Y,33.628833,-86.787696,false
MLS Listing,Single Family Residential,1017 Walker Ave,Birmingham,AL,35217,83500,3,1.0,Maple Grove,,43,1964,0,,145,Active,,,,,83500,,,http://www.redfin.com/AL/Birmingham/1017-Walker-Ave-35217/home/80880869,Greater Alabama MLS,729060,RE/MAX Advantage,N,Y,33.6224508,-86.7995576,false
MLS Listing,Vacant Land,2071 Hickory Ln #16,Fultondale,AL,35068,12800,,,Greenbriar Manor,,20603,,0,,145,Active,,,,,12800,,,http://www.redfin.com/AL/Fultondale/2071-Hickory-Ln-35068/unit-16/home/101763942,Greater Alabama MLS,726950,Keller Williams Metro North,N,Y,33.616878,-86.821357,false
MLS Listing,Vacant Land,1843 Carson Rd N #0,Birmingham,AL,35217,29900,,,Fulton Springs Annex,,139392,,0,,145,Active,,,,,29900,,,http://www.redfin.com/AL/Birmingham/1843-Carson-Rd-N-35217/unit-0/home/101764609,Greater Alabama MLS,634529,RealtySouth-Northern Office,N,Y,33.617757,-86.791752,false
MLS Listing,Single Family Residential,399 Park Dr W,Fultondale,AL,35068,202890,4,2.5,Chapel Hills,,,2016,2,Garage,74,Active,,,,,202890,,,http://www.redfin.com/AL/Fultondale/399-W-Park-Dr-35068/home/102668539,Greater Alabama MLS,737439,D R Horton Homes,N,Y,33.599044,-86.82086,false
New Construction Plan,Single Family Residential,Windsor,Fultondale,AL,35068,229900,3,3.0,Chapel Hills,2475,,,2,Garage,78,Active,,,,,229900,,,http://www.redfin.com/AL/Fultondale/Chapel-Hills/Windsor/home/102416308,Builder Digital eXperience (BDX),Plan-1129486,NewHomeSource.com,N,Y,33.600761,-86.819044,false
New Construction Plan,Single Family Residential,Cali,Fultondale,AL,35068,196900,4,2.0,Chapel Hills,1774,,,2,Garage,78,Active,,,,,196900,,,http://www.redfin.com/AL/Fultondale/Chapel-Hills/Cali/home/102416300,Builder Digital eXperience (BDX),Plan-1174365,NewHomeSource.com,N,Y,33.600761,-86.819044,false
New Construction Plan,Single Family Residential,Wilmington,Fultondale,AL,35068,254900,4,2.5,Chapel Hills,2815,,,2,Garage,78,Active,,,,,254900,,,http://www.redfin.com/AL/Fultondale/Chapel-Hills/Wilmington/home/102416302,Builder Digital eXperience (BDX),Plan-1171955,NewHomeSource.com,N,Y,33.600761,-86.819044,false
New Construction Plan,Single Family Residential,Hamilton,Fultondale,AL,35068,207900,3,2.5,Chapel Hills,1840,,,2,Garage,78,Active,,,,,207900,,,http://www.redfin.com/AL/Fultondale/Chapel-Hills/Hamilton/home/102416305,Builder Digital eXperience (BDX),Plan-1171953,NewHomeSource.com,N,Y,33.600761,-86.819044,false
MLS Listing,Single Family Residential,257 Chapel Hill Trl,Fultondale,AL,35068,235000,4,2.5,Chapel Hills,,13068,2013,2,Garage,145,Active,,,,,235000,2013-12-12,220000.0,http://www.redfin.com/AL/Fultondale/257-Chapel-Hill-Trl-35068/home/80841391,Greater Alabama MLS,726423,Keller Williams Realty Hoover,N,Y,33.6006519,-86.820939,false
MLS Listing,Single Family Residential,527 Overlook Rd,Fultondale,AL,35068,225000,3,3.0,Chapel Hills,,16117,2002,2,Garage,81,Active,,,,,225000,,,http://www.redfin.com/AL/Fultondale/527-Overlook-Rd-35068/home/80811593,Greater Alabama MLS,736742,Hilltop Property Solutions,N,Y,33.5979249,-86.820455,false
MLS Listing,Single Family Residential,3221 Teresa Dr,Fultondale,AL,35217,124900,3,1.5,Town & Country Estates,,87,1965,1,Garage,55,Active,,,,,124900,2005-12-01,125000.0,http://www.redfin.com/AL/Birmingham/3221-Teresa-Dr-35217/home/80875300,Greater Alabama MLS,739186,RE/MAX Southern Homes,N,Y,33.636272,-86.7865659,false
MLS Listing,Single Family Residential,3633 Burlington Dr,Fultondale,AL,35068,240330,4,2.5,Black Creek Station,,,2015,2,Garage,78,Active,,,,,240330,,,http://www.redfin.com/AL/Fultondale/3633-Burlington-DR-35068/unit-154/home/101749224,Greater Alabama MLS,736971,"Ingram & Associates, LLC",N,Y,33.6104462,-86.7929511,false
MLS Listing,Single Family Residential,Undisclosed,Fultondale,AL,35068,199900,3,2.5,,,43,2013,2,Garage,69,Active,,,,,199900,,,http://www.redfin.com/AL/Fultondale/Undisclosed-address-35068/home/80838871,Greater Alabama MLS,737882,Keller Williams Metro North,N,Y,33.610294,-86.792105,false
MLS Listing,Single Family Residential,3638 Grand Central Ave,Fultondale,AL,35068,210500,3,2.0,Black Creek Station,,,2015,2,Garage,63,Active,,,,,210500,2015-07-16,201900.0,http://www.redfin.com/AL/Fultondale/3638-Grand-Central-AVE-35068/unit-181/home/101754030,Greater Alabama MLS,738489,Keller Williams Metro North,N,Y,33.6097274,-86.7921203,false
MLS Listing,Single Family Residential,3555 Burlington Dr,Fultondale,AL,35068,274900,4,3.0,Black Creek Station,,6969,2011,2,Garage,61,Active,,,,,274900,,,http://www.redfin.com/AL/Fultondale/3555-Burlington-Dr-35068/home/80838861,Greater Alabama MLS,738670,RealtySouth-Shelby Office,N,Y,33.609069,-86.793649,false
MLS Listing,Single Family Residential,1322 7th Ave N,Fultondale,AL,35068,55000,3,1.0,Glendale,,10890,1940,0,,50,Active,,,,,55000,,,http://www.redfin.com/AL/Fultondale/1322-7th-Ave-35068/home/80811576,Greater Alabama MLS,739626,RealtySouth-Northern Office,N,Y,33.605834,-86.802963,false
MLS Listing,Vacant Land,3322 Chapel Hill Pkwy #431,Fultondale,AL,35068,29900,,,Chapel Hills,,26136,,0,,145,Active,,,,,29900,,,http://www.redfin.com/AL/Fultondale/3322-Chapel-Hills-PKWY-35068/unit-431/home/101765913,Greater Alabama MLS,621782,"Ingram & Associates, LLC",N,Y,33.5971308,-86.8265882,false
MLS Listing,Single Family Residential,3320 Chapel Hill Pkwy,Fultondale,AL,35068,309900,4,3.0,Chapel Hills,,,2014,2,Garage,145,Active,,,,,309900,,,http://www.redfin.com/AL/Fultondale/3320-Chapel-Hills-Pkwy-35068/home/101749007,Greater Alabama MLS,608489,RE/MAX First Choice,N,Y,33.597648,-86.826921,false
MLS Listing,Single Family Residential,452 Enclave Cir,Fultondale,AL,35068,154900,3,2.0,Chapel Hills,,19602,2002,2,Garage,53,Active,,,,,154900,2002-05-07,21900.0,http://www.redfin.com/AL/Fultondale/452-Enclave-Cir-35068/home/80814916,Greater Alabama MLS,739395,RE/MAX Advantage South,N,Y,33.59453,-86.822299,false
MLS Listing,Vacant Land,2528 Sayers Rd #1,Fultondale,AL,35068,149900,,,Fultondale/Gardendale/MtOlive,,784080,,0,,56,Active,,,,,149900,,,http://www.redfin.com/AL/Fultondale/2528-Sayers-Rd-35068/unit-1/home/103462297,Greater Alabama MLS,738913,Avast Realty - Birmingham,N,Y,33.619692,-86.8068569,false
MLS Listing,Single Family Residential,1731 Fern Dr,Fultondale,AL,35068,148300,3,2.0,Greenbriar Estates,,392,1971,4,Garage,145,Active,,,,2016-01-04,167000,,,http://www.redfin.com/AL/Fultondale/1731-Fern-Dr-35068/home/80887196,Greater Alabama MLS,728102,RE/MAX Advantage,N,Y,33.608458,-86.818322,false
MLS Listing,Single Family Residential,3433 Chapel Hill Pkwy,Fultondale,AL,35068,329900,4,3.5,Chapel Hills,,,2014,3,Garage,145,Active,,,,,329900,,,http://www.redfin.com/AL/Fultondale/3433-Chapel-Hills-Pkwy-35068/home/101748778,Greater Alabama MLS,608628,RE/MAX First Choice,N,Y,33.599905,-86.818042,false
MLS Listing,Vacant Land,724 Whaley Rd #0,Fultondale,AL,35068,14999,,,Fultondale,,63162,,0,,139,Active,,,,2016-01-14,19999,,,http://www.redfin.com/AL/Fultondale/724-Whaley-Rd-35068/unit-0/home/101798836,Greater Alabama MLS,630419,ERA King - Birmingham,N,Y,33.60416,-86.791369,false
MLS Listing,Single Family Residential,1061 Georgetown Ln,Fultondale,AL,35068,119900,2,2.0,Georgetown,,7405,1997,4,Garage,89,Active,,,,,119900,,,http://www.redfin.com/AL/Fultondale/1061-Georgetown-Ln-35068/home/102300636,Greater Alabama MLS,736435,RE/MAX Advantage,N,Y,33.6195602416992,-86.7907409667969,false
MLS Listing,Single Family Residential,912 W Park Ln,Fultondale,AL,35068,94000,3,1.5,Fultondale Estates,,87,1970,1,,106,Active,,,,2016-01-27,97500,,,http://www.redfin.com/AL/Fultondale/912-W-Park-Ln-35068/home/80879810,Greater Alabama MLS,735527,Keller Williams Metro North,N,Y,33.6057599,-86.791254,false
MLS Listing,Single Family Residential,3125 Downs Rd,Fultondale,AL,35068,139900,3,2.0,,,26136,1976,2,,107,Active,,,,,139900,,,http://www.redfin.com/AL/Fultondale/3125-Downs-Rd-35068/home/80887179,Greater Alabama MLS,735392,"The Real Estate Group, Inc.",N,Y,33.609739,-86.830335,false
MLS Listing,Mobile/Manufactured Home,4191 Shady Grove Rd,Fultondale,AL,35068,49900,3,2.0,Burgin,,104544,2008,0,,30,Active,,,,,49900,2014-02-19,24000.0,http://www.redfin.com/AL/Fultondale/4191-Shady-Grove-Rd-35068/home/101748950,Greater Alabama MLS,741467,"Four Star Realty, LLC",N,Y,33.628179,-86.847835,false
New Construction Plan,Single Family Residential,Winston,Fultondale,AL,35068,238900,4,2.5,Chapel Hills,2538,,,2,Garage,78,Active,,,,,238900,,,http://www.redfin.com/AL/Fultondale/Chapel-Hills/Winston/home/102416301,Builder Digital eXperience (BDX),Plan-1171956,NewHomeSource.com,N,Y,33.600761,-86.819044,false
MLS Listing,Single Family Residential,2500 Fern Dr,Fultondale,AL,35068,139900,4,2.5,Greenbriar Estates,,,1962,1,Garage,35,Active,,,,,139900,2015-06-26,65000.0,http://www.redfin.com/AL/Fultondale/2500-Fern-Dr-35068/home/80888810,Greater Alabama MLS,740973,RE/MAX Northern Properties,N,Y,33.607798,-86.819435,false
MLS Listing,Single Family Residential,701 Park Ln,Fultondale,AL,35068,125000,4,2.0,Fultondale,,20037,1955,2,,63,Active,,,,2016-02-24,137000,2015-10-09,48900.0,http://www.redfin.com/AL/Fultondale/701-Park-Ln-35068/home/80879758,Greater Alabama MLS,738495,RE/MAX Advantage South,N,Y,33.599904,-86.789197,false
MLS Listing,Single Family Residential,3545 Southern Trl,Fultondale,AL,35068,145000,2,2.0,Black Creek Station,,4791,2010,1,Garage,44,Active,,,,,145000,,,http://www.redfin.com/AL/Fultondale/3545-Southern-Trl-35068/home/80839314,Greater Alabama MLS,740099,Keller Williams Metro North,N,Y,33.608566,-86.791436,false
MLS Listing,Single Family Residential,948 Alise Cir,Fultondale,AL,35068,167900,3,2.0,Towne Square,,,2016,2,Garage,41,Active,,,,,167900,,,http://www.redfin.com/AL/Fultondale/948-Alise-Cir-35068/home/103766744,Greater Alabama MLS,740473,"Energy Smart New Homes, LLC",N,Y,33.6069626401581,-86.7991104722023,false
MLS Listing,Single Family Residential,3017 York Dr,Fultondale,AL,35068,189900,3,2.5,,,55321,1967,0,,36,Active,,,,,189900,,,http://www.redfin.com/AL/Fultondale/3017-York-Dr-35068/home/80887224,Greater Alabama MLS,740866,Keller Williams Metro North,N,Y,33.613355,-86.828325,false
MLS Listing,Vacant Land,1809 Saturn Dr #0,Fultondale,AL,35068,73920,,,Fultondale/Gardendale/MtOlive,,588060,,0,,27,Active,,,,,73920,,,http://www.redfin.com/AL/Fultondale/1809-Saturn-Dr-35068/unit-0/home/103952455,Greater Alabama MLS,741766,Keller Williams Metro North,N,Y,33.609629,-86.833699,false
MLS Listing,Single Family Residential,701 Main St,Fultondale,AL,35068,199500,4,2.0,Towne Square,,14374,2006,2,Garage,27,Active,,,,,199500,,,http://www.redfin.com/AL/Fultondale/701-Main-St-35068/home/80832304,Greater Alabama MLS,741770,Keller Williams Metro North,N,Y,33.605875,-86.800126,false
MLS Listing,Vacant Land,"812 Broad St Unit 9, 10 & 11",Fultondale,AL,35068,199900,,,Fultondale/Gardendale/MtOlive,,20908,,0,,27,Active,,,,,199900,,,http://www.redfin.com/AL/Fultondale/812-Broad-St-35068/unit-9-10-11/home/103952457,Greater Alabama MLS,741768,Keller Williams Metro North,N,Y,33.607662,-86.80361,false
MLS Listing,Single Family Residential,2312 Walker Chapel Rd,Fultondale,AL,35068,89900,3,1.0,Rogina Gardens,,87,1961,1,,145,Active,,,,2016-02-29,99900,,,http://www.redfin.com/AL/Fultondale/2312-Walker-Chapel-Rd-35068/home/80888336,Greater Alabama MLS,731637,White Real Estate Inc.,N,Y,33.60598,-86.81547,false
MLS Listing,Single Family Residential,1900 Kenneth St,Fultondale,AL,35068,94900,3,1.0,Fultondale,,18295,1973,0,,102,Active,,,,2016-02-29,99900,,,http://www.redfin.com/AL/Fultondale/1900-Kenneth-St-35068/home/80887025,Greater Alabama MLS,735822,RE/MAX Advantage South,N,Y,33.614095,-86.838764,false
MLS Listing,Single Family Residential,883 Cody Cir,Fultondale,AL,35068,160000,3,2.5,Towne Square,,13068,2008,2,Garage,145,Active,,,,,144900,2008-06-06,175570.0,http://www.redfin.com/AL/Fultondale/883-Cody-Cir-35068/home/80836817,Greater Alabama MLS,631888,Town Square Realty,N,Y,33.60709,-86.799111,true
MLS Listing,Single Family Residential,3610 Grand Central Ave,Fultondale,AL,35068,196000,3,2.0,Black Creek Station,,4356,2016,2,Garage,7,Active,,,,,196000,,,http://www.redfin.com/AL/Fultondale/3610-Grand-Central-Ave-35068/home/104208398,Greater Alabama MLS,743874,"Ingram & Associates, LLC",N,Y,33.6097272,-86.7921201,false
MLS Listing,Single Family Residential,476 Chapel Hill Cv,Fultondale,AL,35068,209900,3,2.0,Chapel Hill,,,2009,2,Garage,48,Active,,,,,209900,,,http://www.redfin.com/AL/Fultondale/476-Chapel-Hill-Cv-35068/home/80835928,Greater Alabama MLS,739859,RE/MAX Northern Properties,N,Y,33.593888,-86.828783,false
MLS Listing,Single Family Residential,3025 Kathy Ln,Fultondale,AL,35068,136500,3,2.0,Fultonwood Forest,,13068,1976,1,Garage,4,Active,,,,,136500,2004-06-22,122900.0,http://www.redfin.com/AL/Fultondale/3025-Kathy-Ln-35068/home/80888721,Greater Alabama MLS,744303,RealtySouth-Trussville Office,N,Y,33.608383,-86.829364,false
MLS Listing,Single Family Residential,1801 Eugene St,Fultondale,AL,35068,110900,3,1.0,Fultondale Garden Estate,,29185,1950,0,,4,Active,,,,,110900,2007-07-20,90000.0,http://www.redfin.com/AL/Fultondale/1801-Eugene-St-35068/home/80887612,Greater Alabama MLS,744283,RealtySouth-Trussville Office,N,Y,33.612678,-86.836915,false
MLS Listing,Single Family Residential,1831 Hickory Ln,Fultondale,AL,35068,129900,3,2.0,Greenbriar,,,1967,2,Garage,2,Active,,,,,129900,,,http://www.redfin.com/AL/Coalburg/1831-Hickory-Ln-35068/home/80887202,Greater Alabama MLS,744445,RE/MAX Northern Properties,N,Y,33.610848,-86.818478,false
MLS Listing,Single Family Residential,3115 Teresa Dr,Fultondale,AL,35217,126900,3,2.0,Town & Country Estates,,21780,1968,2,Garage,41,Active,,,,,126900,,,http://www.redfin.com/AL/Birmingham/3115-Teresa-Dr-35217/home/80875857,Greater Alabama MLS,740484,Keller Williams Metro North,N,Y,33.632033,-86.78752,false
MLS Listing,Single Family Residential,3540 Grand Central Ave,Fultondale,AL,35068,170000,3,2.0,Black Creek Station The View,,43,2009,0,,19,Active,,,,2016-03-07,174000,2009-11-23,158000.0,http://www.redfin.com/AL/Fultondale/3540-Grand-Central-Ave-35068/home/80838875,Greater Alabama MLS,742670,MD Realty LLC,N,Y,33.608773,-86.793269,false
MLS Listing,Single Family Residential,3231 Chapel Hill Pkwy,Fultondale,AL,35068,204900,3,2.0,Chapel Hills,,13503,2007,2,Garage,39,Active,,,,2016-03-01,214900,,,http://www.redfin.com/AL/Fultondale/3231-Chapel-Hills-Pkwy-35068/home/80836397,Greater Alabama MLS,740658,RE/MAX Advantage South,N,Y,33.592586,-86.83005,false
MLS Listing,Single Family Residential,3390 Chapel Hill Pkwy,Fultondale,AL,35068,219900,4,2.5,Chapel Hills,,130,2000,2,Garage,87,Active,,,,2016-03-02,224900,2004-02-24,180000.0,http://www.redfin.com/AL/Fultondale/3390-Chapel-Hills-Pkwy-35068/home/80811019,Greater Alabama MLS,736461,"Allen & Associates Realty, Inc",N,Y,33.597503,-86.820601,false
MLS Listing,Single Family Residential,2900 Summit Dr,Fultondale,AL,35068,181900,3,2.0,Chapel Hills,,36154,2004,2,Garage,49,Active,,,,2016-03-02,184900,,,http://www.redfin.com/AL/Fultondale/2900-Summit-Dr-35068/home/103650839,Greater Alabama MLS,739777,RealtySouth-Northern Office,N,Y,33.591437,-86.830201,false
MLS Listing,Single Family Residential,409 Summit Pl,Fultondale,AL,35068,169900,3,2.0,Chapel Hills,,8712,2004,2,Garage,91,Active,,,,2016-03-03,172000,2008-06-27,173000.0,http://www.redfin.com/AL/Fultondale/409-Summit-Pl-35068/home/80826199,Greater Alabama MLS,736344,ERA King - Birmingham,N,Y,33.593441,-86.826423,false
MLS Listing,Townhouse,3069 Summit Ln,Fultondale,AL,35068,114900,2,2.0,Chapel Hills,,43,2004,0,,14,Active,,,,,114900,2013-05-31,100188.0,http://www.redfin.com/AL/Coalburg/3069-Summit-Ln-35068/home/80820928,Greater Alabama MLS,743110,Strong Realty,N,Y,33.595532,-86.824035,false
MLS Listing,Single Family Residential,362 Park Dr W,Fultondale,AL,35068,214285,5,3.0,Chapel Hills,,,2015,2,Garage,18,Active,,,,,213140,,,http://www.redfin.com/AL/Fultondale/362-W-Park-Dr-35068/home/104010506,Greater Alabama MLS,742710,D R Horton Homes,N,Y,33.599849,-86.8197129,false
MLS Listing,Single Family Residential,270 Chapel Hill Trl,Fultondale,AL,35068,216785,3,2.5,Chapel Hills,,,2016,2,Garage,17,Active,,,,,215640,,,http://www.redfin.com/AL/Fultondale/270-Chapel-Hill-Trl-35068/home/104011884,Greater Alabama MLS,742748,D R Horton Homes,N,Y,33.600048,-86.821566,false
MLS Listing,Single Family Residential,326 Chapel Hill Trl,Fultondale,AL,35068,229675,3,2.5,Chapel Hills,,,2016,2,Garage,11,Active,,,,,229675,,,http://www.redfin.com/AL/Fultondale/326-Chapel-Hill-Trl-35068/home/103986629,Greater Alabama MLS,743479,D R Horton Homes,N,Y,33.599379,-86.823702,false
MLS Listing,Single Family Residential,3286 Chapel Hill Pkwy,Fultondale,AL,35068,252900,3,3.0,Chapel Hills,,24829,2008,2,Garage,145,Active,,,,2016-03-13,259900,2008-04-03,249900.0,http://www.redfin.com/AL/Fultondale/3286-Chapel-Hills-Pkwy-35068/home/80836212,Greater Alabama MLS,720114,RealtySouth-OTM-Acton Rd,N,Y,33.596031,-86.828698,false
MLS Listing,Single Family Residential,2926 Summit Dr,Fultondale,AL,35068,154900,3,2.0,Chapel Hills,,9147,2005,2,Garage,26,Active,,,,2016-03-15,157900,2009-04-30,157000.0,http://www.redfin.com/AL/Fultondale/2926-Summit-Dr-35068/home/80826214,Greater Alabama MLS,741867,RE/MAX Advantage South,N,Y,33.5931179,-86.82894,false
New Construction Plan,Single Family Residential,Charleston,Fultondale,AL,35068,234900,4,2.5,Chapel Hills,2447,,,2,Garage,78,Active,,,,,234900,,,http://www.redfin.com/AL/Fultondale/Chapel-Hills/Charleston/home/102416306,Builder Digital eXperience (BDX),Plan-1171951,NewHomeSource.com,N,Y,33.600761,-86.819044,false
MLS Listing,Single Family Residential,3437 Chapel Hill Pkwy,Fultondale,AL,35068,300000,4,3.0,Chapel Hills,,,2012,2,Garage,145,Active,,,,,299000,2013-04-30,273000.0,http://www.redfin.com/AL/Fultondale/3437-Chapel-Hills-Pkwy-35068/home/80841380,Greater Alabama MLS,730621,RealtySouth-OTM-Acton Rd,N,Y,33.600189,-86.818046,false
New Construction Plan,Single Family Residential,Pinehurst,Fultondale,AL,35068,217900,3,2.5,Chapel Hills,2197,,,2,Garage,78,Active,,,,,217900,,,http://www.redfin.com/AL/Fultondale/Chapel-Hills/Pinehurst/home/102416303,Builder Digital eXperience (BDX),Plan-1171954,NewHomeSource.com,N,Y,33.600761,-86.819044,false
MLS Listing,Single Family Residential,309 Chapel Hill Trl,Fultondale,AL,35068,209900,3,2.5,Chapel Hills,,,2016,2,Garage,145,Active,,,,2016-03-19,224050,,,http://www.redfin.com/AL/Fultondale/309-Chapel-Hill-Trl-35068/home/101337083,Greater Alabama MLS,631732,D R Horton Homes,N,Y,33.600234,-86.823562,false
MLS Listing,Single Family Residential,423 Park Dr W,Fultondale,AL,35068,179900,3,2.5,Chapel Hills,,,2016,2,Garage,145,Active,,,,2016-03-19,190330,,,http://www.redfin.com/AL/Fultondale/423-W-Park-Dr-35068/unit-56/home/101750663,Greater Alabama MLS,724277,D R Horton Homes,N,Y,33.598915,-86.821619,false
MLS Listing,Single Family Residential,415 Park Dr W,Fultondale,AL,35068,182900,3,2.5,Chapel Hills,,,2016,2,Garage,145,Active,,,,2016-03-19,188855,,,http://www.redfin.com/AL/Fultondale/415-W-Park-Dr-35068/unit-58/home/101749374,Greater Alabama MLS,726335,D R Horton Homes,N,Y,33.598943,-86.821358,false
MLS Listing,Single Family Residential,411 Park Dr W,Fultondale,AL,35068,189900,4,2.5,Chapel Hills,,,2016,2,Garage,145,Active,,,,2016-03-19,196330,,,http://www.redfin.com/AL/Fultondale/411-W-Park-Dr-35068/home/101337085,Greater Alabama MLS,727126,D R Horton Homes,N,Y,33.598967,-86.821242,false
MLS Listing,Single Family Residential,310 Chapel Hill Trl,Fultondale,AL,35068,239900,4,2.5,Chapel Hills,,,2016,2,Garage,145,Active,,,,2016-03-19,245260,,,http://www.redfin.com/AL/Fultondale/310-Chapel-Hill-Trl-35068/home/101650612,Greater Alabama MLS,727893,D R Horton Homes,N,Y,33.599717,-86.823191,false
MLS Listing,Single Family Residential,225 Chapel Hill Trl,Fultondale,AL,35068,279900,4,2.5,Chapel Hills,,,2016,2,Garage,128,Active,,,,2016-03-19,274900,,,http://www.redfin.com/AL/Fultondale/225-Chapel-Hill-Trl-35068/home/80841387,Greater Alabama MLS,734186,D R Horton Homes,N,Y,33.600761,-86.819044,false
MLS Listing,Single Family Residential,441 Park Dr W,Fultondale,AL,35068,216545,5,3.0,Chapel Hills,,,2016,2,Garage,3,Active,,,,,216545,,,http://www.redfin.com/AL/Fultondale/441-W-Park-Dr-35068/home/104220320,Greater Alabama MLS,744337,D R Horton Homes,N,Y,33.598888,-86.822183,false
MLS Listing,Single Family Residential,422 Park Dr W,Fultondale,AL,35068,202585,4,2.5,Chapel Hills,,,2016,2,Garage,3,Active,,,,,202585,,,http://www.redfin.com/AL/Fultondale/422-W-Park-Dr-35068/home/104220345,Greater Alabama MLS,744338,D R Horton Homes,N,Y,33.5995909,-86.821759,false
MLS Listing,Single Family Residential,3114 Enclave Ln,Fultondale,AL,35068,172500,3,2.0,Chapel Hills,,5227,2000,2,Garage,2,Active,,,,,172500,,,http://www.redfin.com/AL/Fultondale/3114-Enclave-Ln-35068/home/80810553,Greater Alabama MLS,744391,"Arcara Residential, LLC",N,Y,33.59525,-86.821568,false
MLS Listing,Single Family Residential,287 Chapel Hill Trl,Fultondale,AL,35068,189320,3,2.5,Chapel Hills,,,2016,2,Garage,2,Active,,,,,189320,,,http://www.redfin.com/AL/Fultondale/287-Chapel-Hill-Trl-35068/home/104223287,Greater Alabama MLS,744410,D R Horton Homes,N,Y,33.6003213,-86.8222594,false
MLS Listing,Single Family Residential,2997 Summit Dr,Fultondale,AL,35068,127900,2,2.0,Chapel Hills,,43,2004,1,Garage,1,Active,,,,,127900,2008-02-19,124000.0,http://www.redfin.com/AL/Fultondale/2997-Summit-Dr-35068/home/80826484,Greater Alabama MLS,744488,RE/MAX Northern Properties,N,Y,33.595018,-86.8232589,false
MLS Listing,Single Family Residential,464 Enclave Cir,Fultondale,AL,35068,169900,3,2.5,Chapel Hills,,43,2001,2,Garage,1,Active,,,,,169900,,,http://www.redfin.com/AL/Fultondale/464-Enclave-Cir-35068/home/80817171,Greater Alabama MLS,744601,RE/MAX Advantage South,N,Y,33.59413,-86.821679,false
MLS Listing,Single Family Residential,2818 Walker Ct,Fultondale,AL,35217,223900,3,3.0,Mccarter Creek,,20473,2006,2,Garage,24,Active,,,,,223900,,,http://www.redfin.com/AL/Birmingham/2818-Walker-Ct-35217/home/80822852,Greater Alabama MLS,742007,Home Places Realty,N,Y,33.623333,-86.796553,false
MLS Listing,Single Family Residential,2219 Outwood Rd,Fultondale,AL,35068,189900,3,3.0,Fultonbrook Estates,,130680,1971,2,Garage,23,Active,,,,,189900,,,http://www.redfin.com/AL/Fultondale/2219-Outwood-Rd-35068/home/80886371,Greater Alabama MLS,742046,Cedar Crest Realty,N,Y,33.617275,-86.815571,false
MLS Listing,Single Family Residential,516 Fultonbrook Dr,Fultondale,AL,35068,161000,3,2.0,Fultonbrook Manor,,39378,1996,2,Garage,28,Active,,,,,161000,2005-08-25,141000.0,http://www.redfin.com/AL/Fultondale/516-Fultonbrook-Dr-35068/home/80886508,Greater Alabama MLS,741665,Keller Williams Metro North,N,Y,33.622068,-86.80705,false
MLS Listing,Single Family Residential,264 Fulton Springs Pl,Fultondale,AL,35068,174900,3,2.0,Fulton Springs,,6098,2007,2,Garage,16,Active,,,,,174900,2008-02-29,167900.0,http://www.redfin.com/AL/Fultondale/264-Fulton-Springs-Pl-35068/home/80836160,Greater Alabama MLS,742869,Keller Williams Metro North,N,Y,33.625513,-86.806275,false
MLS Listing,Single Family Residential,1421 Leora Ave,Fultondale,AL,35068,78000,2,1.0,,,21780,1930,2,,29,Active,,,,,78000,2005-10-18,53500.0,http://www.redfin.com/AL/Fultondale/1421-Leora-Ave-35068/home/80886919,Greater Alabama MLS,741583,ARC Realty,N,Y,33.618709,-86.805216,false
MLS Listing,Single Family Residential,4039 Fulton Springs Ln,Fultondale,AL,35068,140000,3,2.0,Fulton Springs,,6098,2008,1,Garage,145,Active,,,,,140000,,,http://www.redfin.com/AL/Fultondale/4039-Fulton-Springs-Ln-35068/home/101751431,Greater Alabama MLS,729438,Barnes & Associates,N,Y,33.62381,-86.808279,false
MLS Listing,Single Family Residential,916 Walker Ave,Fultondale,AL,35217,71400,2,1.0,Fulton Springs,,,1940,0,,1,Active,,,,,71400,2013-04-30,28000.0,http://www.redfin.com/AL/Birmingham/916-Walker-Ave-35217/home/80886106,Greater Alabama MLS,744571,RealtySouth-Inverness Office,N,Y,33.6223,-86.796816,false

