SALE TYPE,HOME TYPE,ADDRESS,CITY,STATE,ZIP,LIST PRICE,BEDS,BATHS,LOCATION,SQFT,LOT SIZE,YEAR BUILT,PARKING SPOTS,PARKING TYPE,DAYS ON MARKET,STATUS,NEXT OPEN HOUSE DATE,NEXT OPEN HOUSE START TIME,NEXT OPEN HOUSE END TIME,RECENT REDUCTION DATE,ORIGINAL LIST PRICE,LAST SALE DATE,LAST SALE PRICE,URL (SEE http://www.redfin.com/buy-a-home/comparative-market-analysis FOR INFO ON PRICING),SOURCE,LISTING ID,ORIGINAL SOURCE,FAVORITE,INTERESTED,LATITUDE,LONGITUDE,IS SHORT SALE
MLS Listing,Single Family Residential,274 Colonial Ln,Odenville,AL,35120,169900,4,3.0,Plantation Pines,,39204,2004,2,Garage,91,Active,,,,,169900,,,http://www.redfin.com/AL/Odenville/274-Colonial-Ln-35120/home/80637591,Greater Alabama MLS,736415,RE/MAX Hometown Properties,N,Y,33.69187,-86.428454,false
MLS Listing,Vacant Land,6985 Old Acton Rd #1037,Odenville,AL,35120,8900,,,The Terrace At Woodland Ridge,,23958,,0,,145,Active,,,,,8900,,,http://www.redfin.com/AL/Odenville/6985-Old-Acton-Rd-35120/unit-1037/home/101763851,Greater Alabama MLS,619952,RE/MAX Realty Brokers,N,Y,33.6479855,-86.4953204,false
MLS Listing,Vacant Land,40 Euclid Trc #31,Odenville,AL,35120,19900,,,Alla Don,,43560,,0,,145,Active,,,,2015-12-22,22900,,,http://www.redfin.com/AL/Odenville/40-Euclid-TRCE-35120/unit-31/home/101765696,Greater Alabama MLS,624880,Lovejoy Realty,N,Y,33.6499785,-86.4673516,false
MLS Listing,Vacant Land,7155 Old Acton Rd #1024,Odenville,AL,35120,8900,,,The Terrace At Woodland Ridge,,20908,,0,,145,Active,,,,,8900,,,http://www.redfin.com/AL/Odenville/7155-Old-Acton-Rd-35120/unit-1024/home/101763639,Greater Alabama MLS,619961,RE/MAX Realty Brokers,N,Y,33.6563835,-86.4905167,false
MLS Listing,Vacant Land,7045 Old Acton Rd #1031,Odenville,AL,35120,8900,,,The Terrace At Woodland Ridge,,26571,,0,,145,Active,,,,,8900,,,http://www.redfin.com/AL/Odenville/7045-Old-Acton-Rd-35120/unit-1031/home/101763640,Greater Alabama MLS,619964,RE/MAX Realty Brokers,N,Y,33.6535028,-86.4917075,false
MLS Listing,Vacant Land,7025 Old Acton Rd #1033,Odenville,AL,35120,8900,,,The Terrace At Woodland Ridge,,22215,,0,,145,Active,,,,,8900,,,http://www.redfin.com/AL/Odenville/7025-Old-Acton-Rd-35120/unit-1033/home/101763641,Greater Alabama MLS,619965,RE/MAX Realty Brokers,N,Y,33.6528752,-86.4921045,false
MLS Listing,Vacant Land,7015 Old Acton Rd #1034,Odenville,AL,35120,8900,,,The Terrace At Woodland Ridge,,21344,,0,,145,Active,,,,,8900,,,http://www.redfin.com/AL/Odenville/7015-Old-Acton-Rd-35120/unit-1034/home/101763642,Greater Alabama MLS,619966,RE/MAX Realty Brokers,N,Y,33.6525614,-86.4923029,false
MLS Listing,Vacant Land,7035 Old Acton Rd #1032,Odenville,AL,35120,8900,,,The Terrace At Woodland Ridge,,23958,,0,,145,Active,,,,,8900,,,http://www.redfin.com/AL/Odenville/7035-Old-Acton-Rd-35120/unit-1032/home/101763852,Greater Alabama MLS,619957,RE/MAX Realty Brokers,N,Y,33.653189,-86.491906,false
MLS Listing,Vacant Land,7235 Old Acton Rd #1016,Odenville,AL,35120,8900,,,The Terrace At Woodland Ridge,,23086,,0,,145,Active,,,,,8900,,,http://www.redfin.com/AL/Odenville/7235-Old-Acton-Rd-35120/unit-1016/home/101763853,Greater Alabama MLS,619958,RE/MAX Realty Brokers,N,Y,33.6594252,-86.4878941,false
MLS Listing,Vacant Land,7195 Old Acton Rd #1020,Odenville,AL,35120,8900,,,The Terrace At Woodland Ridge,,20473,,0,,145,Active,,,,,8900,,,http://www.redfin.com/AL/Odenville/7195-Old-Acton-Rd-35120/unit-1020/home/101763854,Greater Alabama MLS,619959,RE/MAX Realty Brokers,N,Y,33.6582369,-86.4888261,false
MLS Listing,Single Family Residential,200 Brookside Ln,Odenville,AL,35120,159900,3,2.0,Hunters Crossing,,21344,2005,2,Garage,145,Active,,,,,159900,,,http://www.redfin.com/AL/Odenville/200-Brookside-Ln-35120/home/80637605,Greater Alabama MLS,731374,Kell Realty,N,Y,33.684835,-86.434628,false
For-Sale-by-Owner Listing,Single Family Residential,121 Parkwood Ln,Odenville,AL,35120,166900,3,2.0,Odenville,1500,26136,2006,2,Garage,196,Active,,,,,166900,2014-04-18,153000.0,http://www.redfin.com/AL/Odenville/121-Parkwood-Ln-35120/home/80640199,ForSaleByOwner.com,24026922,ForSaleByOwner.com,N,Y,33.685478,-86.428268,false
For-Sale-by-Owner Listing,Single Family Residential,7295 Old Acton Rd,Moody,AL,35004,135000,3,2.5,Moody,1200,,2006,2,Garage,196,Active,,,,,135000,,,http://www.redfin.com/AL/Moody/7295-Old-Acton-Rd-35004/home/80620607,ForSaleByOwner.com,22200028,ForSaleByOwner.com,N,Y,33.659796,-86.488121,false
MLS Listing,Single Family Residential,35 Clover St,Odenville,AL,35120,130000,3,2.0,Woodland Ridge,,8276,2009,1,Garage,112,Active,,,,,130000,,,http://www.redfin.com/AL/Odenville/35-Clover-St-35120/home/80641596,Greater Alabama MLS,735108,RE/MAX Marketplace,N,Y,33.6664963,-86.4913885,false
MLS Listing,Vacant Land,Summit Park Rd #6,Odenville,AL,35120,39900,,,,,237837,,0,,145,Active,,,,,39900,,,http://www.redfin.com/AL/Odenville/Summit-Park-Rd-Unknown/unit-6/home/101764253,Greater Alabama MLS,564928,Lovejoy Realty,N,Y,33.7003899,-86.4486237,false
MLS Listing,Vacant Land,Summit Park Rd #7,Odenville,AL,35120,32900,,,,,197762,,0,,145,Active,,,,,32900,,,http://www.redfin.com/AL/Odenville/Summit-Park-Rd-Unknown/unit-7/home/101764254,Greater Alabama MLS,564929,Lovejoy Realty,N,Y,33.7003899,-86.4486237,false
MLS Listing,Vacant Land,Summit Park Rd #8,Odenville,AL,35120,26900,,,,,157251,,0,,145,Active,,,,,26900,,,http://www.redfin.com/AL/Odenville/Summit-Park-Rd-Unknown/unit-8/home/101764255,Greater Alabama MLS,564930,Lovejoy Realty,N,Y,33.7003899,-86.4486237,false
MLS Listing,Vacant Land,Summit Park Rd #9,Odenville,AL,35120,25900,,,,,155944,,0,,145,Active,,,,,25900,,,http://www.redfin.com/AL/Odenville/Summit-Park-Rd-Unknown/unit-9/home/101764256,Greater Alabama MLS,564931,Lovejoy Realty,N,Y,33.7003899,-86.4486237,false
MLS Listing,Vacant Land,Summit Park Rd #11,Odenville,AL,35120,89900,,,,,944816,,0,,145,Active,,,,,89900,,,http://www.redfin.com/AL/Odenville/Summit-Park-Rd-Unknown/unit-11/home/101764257,Greater Alabama MLS,564932,Lovejoy Realty,N,Y,33.7003899,-86.4486237,false
MLS Listing,Vacant Land,Summit Park Rd #12,Odenville,AL,35120,72500,,,,,1125590,,0,,145,Active,,,,,72500,,,http://www.redfin.com/AL/Odenville/Summit-Park-Rd-Unknown/unit-12/home/101764258,Greater Alabama MLS,564933,Lovejoy Realty,N,Y,33.7003899,-86.4486237,false
MLS Listing,Vacant Land,Summit Park Rd #13,Odenville,AL,35120,92500,,,,,1433124,,0,,145,Active,,,,,92500,,,http://www.redfin.com/AL/Odenville/Summit-Park-Rd-Unknown/unit-13/home/101764259,Greater Alabama MLS,564934,Lovejoy Realty,N,Y,33.7003899,-86.4486237,false
MLS Listing,Vacant Land,Summit Park Rd #14,Odenville,AL,35120,81000,,,,,1259319,,0,,145,Active,,,,,81000,,,http://www.redfin.com/AL/Odenville/Summit-Park-Rd-Unknown/unit-14/home/101764260,Greater Alabama MLS,564935,Lovejoy Realty,N,Y,33.7003899,-86.4486237,false
MLS Listing,Vacant Land,Summit Park Rd #2,Odenville,AL,35120,32900,,,,,201247,,0,,145,Active,,,,,32900,,,http://www.redfin.com/AL/Odenville/Summit-Park-Rd-Unknown/unit-2/home/101764249,Greater Alabama MLS,564922,Lovejoy Realty,N,Y,33.7003899,-86.4486237,false
MLS Listing,Vacant Land,Summit Park Rd #3,Odenville,AL,35120,24900,,,,,135471,,0,,145,Active,,,,,24900,,,http://www.redfin.com/AL/Odenville/Summit-Park-Rd-Unknown/unit-3/home/101764250,Greater Alabama MLS,564924,Lovejoy Realty,N,Y,33.7003899,-86.4486237,false
MLS Listing,Vacant Land,Summit Park Rd #4,Odenville,AL,35120,25900,,,,,148975,,0,,145,Active,,,,,25900,,,http://www.redfin.com/AL/Odenville/Summit-Park-Rd-Unknown/unit-4/home/101764251,Greater Alabama MLS,564926,Lovejoy Realty,N,Y,33.7003899,-86.4486237,false
MLS Listing,Vacant Land,Summit Park Rd #5,Odenville,AL,35120,26900,,,,,169448,,0,,145,Active,,,,,26900,,,http://www.redfin.com/AL/Odenville/Summit-Park-Rd-Unknown/unit-5/home/101764252,Greater Alabama MLS,564927,Lovejoy Realty,N,Y,33.7003899,-86.4486237,false
MLS Listing,Vacant Land,Hillcrest Rd S Unit 2.7,Margaret,AL,35120,22900,,,,,117612,,0,,145,Active,,,,,22900,,,http://www.redfin.com/AL/Odenville/27-Hillcrest-Ln-35120/unit-27/home/101763793,Greater Alabama MLS,602247,Lovejoy Realty,N,Y,33.6788081,-86.4734403,false
MLS Listing,Single Family Residential,65 Clover St,Odenville,AL,35120,164950,4,2.0,Woodland Ridge,,6969,2016,2,Garage,74,Active,,,,,164950,,,http://www.redfin.com/AL/Odenville/65-Clover-St-35120/home/80623810,Greater Alabama MLS,737422,"Adams Homes, LLC",N,Y,33.666928,-86.4910564,false
MLS Listing,Single Family Residential,900 Clover Ave,Odenville,AL,35120,152900,4,2.0,Woodland Ridge,,7840,2016,2,Garage,145,Active,,,,,149900,,,http://www.redfin.com/AL/Odenville/900-Clover-Ave-35120/home/80623840,Greater Alabama MLS,630840,"Adams Homes, LLC",N,Y,33.665147,-86.492495,false
MLS Listing,Single Family Residential,910 Clover Ave,Odenville,AL,35120,144900,3,2.0,Woodland Ridge,,7840,2016,2,Garage,145,Active,,,,,141900,,,http://www.redfin.com/AL/Odenville/910-Clover-Ave-35120/home/80641632,Greater Alabama MLS,730244,"Adams Homes, LLC",N,Y,33.665018,-86.492588,false
MLS Listing,Single Family Residential,990 Clover Ave,Odenville,AL,35120,160900,4,2.0,Woodland Ridge,,7405,2016,2,Garage,113,Active,,,,,160900,,,http://www.redfin.com/AL/Odenville/990-Clover-Ave-35120/home/80623835,Greater Alabama MLS,735051,"Adams Homes, LLC",N,Y,33.663862,-86.4929,false
MLS Listing,Vacant Land,0 Woodland Ridge Rd N #0,Odenville,AL,35120,95000,,,Woodland Ridge,,871200,,0,,145,Active,,,,2016-01-29,115000,,,http://www.redfin.com/AL/Odenville/0-Woodland-Ridge-RD-35120/unit-0/home/101762832,Greater Alabama MLS,726886,"Four Star Realty, LLC",N,Y,33.6705999,-86.4913582,false
MLS Listing,Vacant Land,o Fisher Dr #0,Ashville,AL,35953,10965,,,Ashville/Odenville/Ragland,,188614,,0,,145,Active,,,,2015-11-11,24123,,,http://www.redfin.com/AL/Ashville/o-Fisher-Dr-35953/unit-0/home/101764629,Greater Alabama MLS,723996,"The Real Estate Group, Inc.",N,Y,33.6850063301277,-86.4378414154053,false
MLS Listing,Mobile/Manufactured Home,133 Clearview Rd,Odenville,AL,35120,106900,3,2.0,Hunters Crossing,,80586,2004,0,,119,Active,,,,,106900,,,http://www.redfin.com/AL/Odenville/133-CLEARVIEW-RD-Unknown/home/80637345,Greater Alabama MLS,734789,Blue House Realty,N,Y,33.6895408630371,-86.4403305053711,false
MLS Listing,Vacant Land,Hunters Crossing Rd Unit 3AC,Odenville,AL,35120,26900,,,Hunters Crossing,,135036,,0,,145,Active,,,,2016-02-03,32900,,,http://www.redfin.com/AL/Odenville/Hunters-Crossing-Rd-35120/unit-3AC/home/101762988,Greater Alabama MLS,626330,Lovejoy Realty,N,Y,33.689079,-86.425206,false
MLS Listing,Mobile/Manufactured Home,49 Hazel Ln,Margaret,AL,35112,84900,3,2.0,,,91040,2000,0,,145,Active,,,,,84900,,,http://www.redfin.com/AL/Margaret/49-Hazel-LN-35112/home/101751260,Greater Alabama MLS,720970,Keller Williams Realty Trussvi,N,Y,33.697102,-86.4666,false
MLS Listing,Vacant Land,Brookhaven Ln #48,Odenville,AL,35120,16000,,,Brookhaven,,31798,,0,,145,Active,,,,,16000,,,http://www.redfin.com/AL/Odenville/Brookhaven-Ln-35120/unit-48/home/101763243,Greater Alabama MLS,626490,Keller Williams Realty Bham,N,Y,33.6444588,-86.4814835,false
MLS Listing,Vacant Land,675 Starlite Dr #501,Margaret,AL,35120,97500,,,Sunrise Estates,,,,0,,145,Active,,,,,97500,,,http://www.redfin.com/AL/Odenville/675-Starlite-DR-35120/unit-501/home/101765189,Greater Alabama MLS,604588,Lovejoy Realty,N,Y,33.6803229,-86.4675064,false
MLS Listing,Vacant Land,Railroad Dr Unit n/a,Odenville,AL,35120,31900,,,Ashville/Odenville/Ragland,,131115,,0,,50,Active,,,,,31900,,,http://www.redfin.com/AL/Odenville/Railroad-Dr-35120/unit-n-a/home/103642071,Greater Alabama MLS,739667,RealtySouth-Over the Mtn,N,Y,33.6758117675781,-86.4697570800781,false
MLS Listing,Single Family Residential,360 Hathaway Ln,Odenville,AL,35120,104900,2,2.0,Brookhaven,,4356,2007,0,,30,Active,,,,,104900,,,http://www.redfin.com/AL/Odenville/360-Hathaway-Ln-35120/home/80640355,Greater Alabama MLS,741398,Webb & Company Realty,N,Y,33.647235,-86.478854,false
MLS Listing,Single Family Residential,718 S Hillcrest Rd,Odenville,AL,35120,147900,3,3.0,Shady Pines,,26571,2004,2,Garage,34,Active,,,,2016-02-26,149900,2014-06-30,121450.0,http://www.redfin.com/AL/Odenville/718-S-Hillcrest-Rd-35120/home/80634930,Greater Alabama MLS,741057,Keller Williams Realty Trussvi,N,Y,33.6739,-86.473155,false
MLS Listing,Mobile/Manufactured Home,875 Cherrywood Ct,Odenville,AL,35120,73900,3,2.0,Clearview Estates,,87120,2006,0,,86,Active,,,,,73900,,,http://www.redfin.com/AL/Odenville/875-Cherrywood-Ct-35120/home/80637539,Greater Alabama MLS,736515,J. Huggins Realty Inc,N,Y,33.686738,-86.439624,false
MLS Listing,Mobile/Manufactured Home,516 Clearview Rd,Odenville,AL,35120,77900,3,2.0,Clearview Estates,,54450,2006,0,,9,Active,,,,,77900,2015-12-10,24651.0,http://www.redfin.com/AL/Odenville/516-CLEARVIEW-RD-Unknown/home/80637370,Greater Alabama MLS,743695,J. Huggins Realty Inc,N,Y,33.6912155,-86.4463882,false
MLS Listing,Single Family Residential,835 Clover Ave,Odenville,AL,35120,150820,3,2.0,Woodland Ridge,,7840,2016,2,Garage,145,Active,,,,2016-02-05,147400,,,http://www.redfin.com/AL/Odenville/835-Clover-Ave-35120/home/80623842,Greater Alabama MLS,630796,"Adams Homes, LLC",N,Y,33.665685,-86.491375,false
MLS Listing,Single Family Residential,870 Clover Ave,Odenville,AL,35120,148450,3,2.0,Woodland Ridge,,6969,2016,2,Garage,113,Active,,,,,140900,,,http://www.redfin.com/AL/Odenville/870-Clover-Ave-35120/home/80623826,Greater Alabama MLS,735045,"Adams Homes, LLC",N,Y,33.6655159,-86.492221,false
MLS Listing,Single Family Residential,1000 Clover Ave,Odenville,AL,35120,140900,3,2.0,Woodland Ridge,,7840,2016,2,Garage,27,Active,,,,,140900,,,http://www.redfin.com/AL/Odenville/1000-Clover-Ave-35120/home/80623834,Greater Alabama MLS,741778,"Adams Homes, LLC",N,Y,33.663715,-86.492982,false
MLS Listing,Vacant Land,155 Hawkins Dr Unit 37B,Margaret,AL,35120,11000,,,Ashville/Odenville/Ragland,,27442,,0,,27,Active,,,,,10000,,,http://www.redfin.com/AL/Odenville/155-Hawkins-Dr-35120/unit-37B/home/103950306,Greater Alabama MLS,741715,RE/MAX Marketplace,N,Y,33.65172,-86.475698,false
MLS Listing,Vacant Land,Haven Cir #12,Margaret,AL,35120,11000,,,Ashville/Odenville/Ragland,,31363,,0,,27,Active,,,,,10000,,,http://www.redfin.com/AL/Odenville/S-Haven-Cir-35120/unit-12/home/103950361,Greater Alabama MLS,741719,RE/MAX Marketplace,N,Y,33.65478,-86.475409,false
MLS Listing,Single Family Residential,450 Levine Rd,Odenville,AL,35112,154900,3,3.0,Pine Crest,,27442,2006,2,Garage,9,Active,,,,,154000,,,http://www.redfin.com/AL/Odenville/450-Levine-Rd-35120/home/80638420,Greater Alabama MLS,743630,Keller Williams Realty Trussvi,N,Y,33.677238,-86.488291,false
MLS Listing,Single Family Residential,200 Railroad Dr,Odenville,AL,35120,59900,3,3.0,Margaret,,21780,1998,0,,145,Active,,,,2016-03-22,79900,,,http://www.redfin.com/AL/Odenville/200-Railroad-Dr-35120/home/101748665,Greater Alabama MLS,729875,"Butler Realty, LLC",N,Y,33.6736328,-86.4694022,false
MLS Listing,Single Family Residential,515 Sterling Pl,Odenville,AL,35120,159900,3,2.0,Sterling Place,,6969,2016,2,Garage,1,Active,,,,,159900,,,http://www.redfin.com/AL/Odenville/515-Sterling-Pl-35120/home/80622949,Greater Alabama MLS,744597,Eddleman Realty LLC,N,Y,33.657054,-86.4793569,false
MLS Listing,Single Family Residential,210 Sterling Pl,Odenville,AL,35120,159900,3,2.0,Sterling Place,,7840,2016,2,Garage,1,Active,,,,,159900,,,http://www.redfin.com/AL/Odenville/210-Sterling-Pl-35120/home/80623495,Greater Alabama MLS,744599,Eddleman Realty LLC,N,Y,33.656297,-86.47983,false
MLS Listing,Single Family Residential,1839 Old Margaret Rd,Odenville,AL,35120,109900,3,2.0,Fox Ridge,,98445,2004,1,Garage,27,Active,,,,,109900,,,http://www.redfin.com/AL/Odenville/1839-Old-Margaret-Rd-35120/home/80637484,Greater Alabama MLS,741751,RealtySouth-Inverness Office,N,Y,33.687766,-86.421991,false
MLS Listing,Single Family Residential,1865 Levine Rd,Odenville,AL,35120,159900,3,2.0,,,269636,1940,1,Garage,33,Active,,,,2016-02-29,169900,2015-10-16,39500.0,http://www.redfin.com/AL/Odenville/1865-Levine-Rd-35120/home/80644832,Greater Alabama MLS,741140,Brik Realty,N,Y,33.6944032,-86.4791045,false
MLS Listing,Single Family Residential,218 Levine Rd,Odenville,AL,35120,149900,3,2.0,Pine Crest,,16552,2005,2,Garage,28,Active,,,,,149900,2012-01-17,90000.0,http://www.redfin.com/AL/Odenville/218-Levine-Rd-35120/home/80638428,Greater Alabama MLS,741660,The Realty Pros,N,Y,33.675242,-86.489308,false
MLS Listing,Single Family Residential,230 Lindas Loop,Odenville,AL,35120,235900,4,3.5,Brookhaven,,30491,2006,2,Garage,24,Active,,,,,235900,2012-02-01,184000.0,http://www.redfin.com/AL/Odenville/230-Lindas-Loop-35120/home/80638289,Greater Alabama MLS,742026,ARC Realty,N,Y,33.6438569,-86.480116,false
MLS Listing,Single Family Residential,35 Ryan Cir,Odenville,AL,35120,254900,4,4.0,Brookhaven,,,2008,2,Garage,38,Active,,,,,254900,,,http://www.redfin.com/AL/Odenville/35-Ryan-Cir-35120/home/80622820,Greater Alabama MLS,740708,Brik Realty,N,Y,33.6477,-86.483705,false
MLS Listing,Vacant Land,Brookhaven Dr #957,Odenville,AL,35120,9000,,,Ashville/Odenville/Ragland,,,,0,,27,Active,,,,2016-02-25,10000,,,http://www.redfin.com/AL/Odenville/957-Brookhaven-Dr-35120/unit-957/home/103949864,Greater Alabama MLS,741692,RE/MAX Marketplace,N,Y,33.645179,-86.4848439,false
MLS Listing,Vacant Land,Small Lake Dr #37,Margaret,AL,35120,11000,,,Ashville/Odenville/Ragland,,26136,,0,,27,Active,,,,,10000,,,http://www.redfin.com/AL/Odenville/Small-Lake-Dr-35120/unit-37/home/103950500,Greater Alabama MLS,741722,RE/MAX Marketplace,N,Y,33.650212,-86.475626,false
MLS Listing,Vacant Land,Small Lake Dr #42,Margaret,AL,35120,11000,,,Ashville/Odenville/Ragland,,34848,,0,,27,Active,,,,,11000,,,http://www.redfin.com/AL/Odenville/Small-Lake-Dr-35120/unit-42/home/103950640,Greater Alabama MLS,741729,RE/MAX Marketplace,N,Y,33.650212,-86.475626,false
MLS Listing,Vacant Land,Brookhaven Dr #958,Margaret,AL,35120,9000,,,Ashville/Odenville/Ragland,,,,0,,27,Active,,,,2016-02-25,10000,,,http://www.redfin.com/AL/Odenville/958-Brookhaven-Dr-35120/unit-958/home/103950711,Greater Alabama MLS,741736,RE/MAX Marketplace,N,Y,33.64516,-86.484852,false
MLS Listing,Single Family Residential,645 Magnolia Crest Ct,Odenville,AL,35120,99400,3,2.0,Magnolia Lake,,40075,2011,2,Garage,1,Active,,,,,99400,,,http://www.redfin.com/AL/Odenville/645-Magnolia-Crest-Ct-35120/home/80642850,Greater Alabama MLS,744493,RealtySouth-Trussville Office,N,Y,33.646178,-86.471158,false
New Construction Plan,Single Family Residential,Chantily,Odenville,AL,35120,,4,2.5,Brookhaven,2415,,,2,Garage,1,Active,,,,,,,,http://www.redfin.com/AL/Odenville/Brookhaven/Chantily/home/104236548/horton-Plan-272011,DR Horton,Plan-272011,DR Horton,N,Y,33.6464,-86.4817,false
New Construction Plan,Single Family Residential,Canlers,Odenville,AL,35120,,5,3.5,Brookhaven,3011,,,3,Garage,1,Active,,,,,,,,http://www.redfin.com/AL/Odenville/Brookhaven/Canlers/home/104236549/horton-Plan-272010,DR Horton,Plan-272010,DR Horton,N,Y,33.6464,-86.4817,false
New Construction Plan,Single Family Residential,Bancourt,Odenville,AL,35120,,5,2.5,Brookhaven,2791,,,2,Garage,1,Active,,,,,,,,http://www.redfin.com/AL/Odenville/Brookhaven/Bancourt/home/104236550/horton-Plan-272009,DR Horton,Plan-272009,DR Horton,N,Y,33.6464,-86.4817,false

