SALE TYPE,HOME TYPE,ADDRESS,CITY,STATE,ZIP,LIST PRICE,BEDS,BATHS,LOCATION,SQFT,LOT SIZE,YEAR BUILT,PARKING SPOTS,PARKING TYPE,DAYS ON MARKET,STATUS,NEXT OPEN HOUSE DATE,NEXT OPEN HOUSE START TIME,NEXT OPEN HOUSE END TIME,RECENT REDUCTION DATE,ORIGINAL LIST PRICE,LAST SALE DATE,LAST SALE PRICE,URL (SEE http://www.redfin.com/buy-a-home/comparative-market-analysis FOR INFO ON PRICING),SOURCE,LISTING ID,ORIGINAL SOURCE,FAVORITE,INTERESTED,LATITUDE,LONGITUDE,IS SHORT SALE
MLS Listing,Single Family Residential,2360 Salem Rd,Montevallo,AL,35115,320000,2,2.0,Montevallo,,324086,1992,0,,145,Active,,,,2015-12-16,365000,,,http://www.redfin.com/AL/Montevallo/2360-Salem-Rd-35115/home/101748747,Greater Alabama MLS,723770,RE/MAX Advantage South,N,Y,33.14329,-86.854329,false
MLS Listing,Vacant Land,126 Patriot Park #115,Montevallo,AL,35115,25000,,,Heritage Trace,,13503,,0,,145,Active,,,,,25000,,,http://www.redfin.com/AL/Montevallo/126-Patriot-Park-Unknown/unit-115/home/101763244,Greater Alabama MLS,629481,RE/MAX Southern Homes-280,N,Y,33.1392965,-86.8209379,false
MLS Listing,Vacant Land,153 Patriot Park #82,Montevallo,AL,35115,25000,,,Calera/Montevallo/Wilton,,28749,,0,,145,Active,,,,,25000,,,http://www.redfin.com/AL/Montevallo/153-Patriot-Park-Unknown/unit-82/home/101764219,Greater Alabama MLS,732172,RE/MAX Southern Homes-280,N,Y,33.1391470134258,-86.8204215914011,false
MLS Listing,Vacant Land,156 Patriot Park #83,Montevallo,AL,35115,25000,,,Calera/Montevallo/Wilton,,20473,,0,,145,Active,,,,,25000,,,http://www.redfin.com/AL/Montevallo/156-Patriot-Park-Unknown/unit-83/home/101764220,Greater Alabama MLS,732181,RE/MAX Southern Homes-280,N,Y,33.1390450894833,-86.8203786760569,false
MLS Listing,Vacant Land,141 Patriot Park #79,Montevallo,AL,35115,25000,,,Calera/Montevallo/Wilton,,16117,,0,,145,Active,,,,,25000,,,http://www.redfin.com/AL/Montevallo/141-Patriot-Park-Unknown/unit-79/home/101764222,Greater Alabama MLS,732188,RE/MAX Southern Homes-280,N,Y,33.1392496079206,-86.8206341564655,false
MLS Listing,Single Family Residential,270 Ashville Cir,Montevallo,AL,35115,169000,3,2.0,Hubbard & Givhans,,45302,1964,2,,91,Active,,,,,169000,,,http://www.redfin.com/AL/Montevallo/270-Ashville-Cir-35115/home/80759704,Greater Alabama MLS,736386,Keller Williams Metro South,N,Y,33.112413,-86.855274,false
MLS Listing,Single Family Residential,245 Country Ridge Rd,Montevallo,AL,35115,559900,4,2.5,Country Hills,,1085950,2000,2,,145,Active,,,,,559900,,,http://www.redfin.com/AL/Montevallo/245-Country-Ridge-Rd-35115/home/80717497,Greater Alabama MLS,721221,"TEAMMASSEYPROPERTIES, LLC",N,Y,33.159213,-86.8383,false
MLS Listing,Single Family Residential,108 Hidden Trace Ct,Montevallo,AL,35115,159900,3,2.5,Lakes At Hidden Forest,,6098,2007,2,Garage,145,Active,,,,,159900,,,http://www.redfin.com/AL/Montevallo/108-Hidden-Trace-Ct-35115/home/80735087,Greater Alabama MLS,629743,RealtySouth-Shelby Office,N,Y,33.167515,-86.82712,false
MLS Listing,Vacant Land,Spring Creek Rd Unit 30 AC,Montevallo,AL,35115,249000,,,,,1306800,,0,,130,Active,,,,,249000,,,http://www.redfin.com/AL/Montevallo/Spring-Creek-Rd-35115/unit-30-AC/home/102071619,Greater Alabama MLS,734071,RE/MAX First Choice,N,Y,33.110146,-86.831347,false
For-Sale-by-Owner Listing,Single Family Residential,415 Tecumseh St,Montevallo,AL,35115,179900,5,3.0,Montevallo,1700,44867,1991,2,Garage,196,Active,,,,,179900,2008-02-19,150000.0,http://www.redfin.com/AL/Montevallo/415-Tecumseh-St-35115/home/80759822,ForSaleByOwner.com,24004116,ForSaleByOwner.com,N,Y,33.113161,-86.847652,false
MLS Listing,Vacant Land,4 Montevallo Commons Pkwy #4,Montevallo,AL,35115,49900,,,,,28749,,0,,145,Active,,,,,49900,,,http://www.redfin.com/AL/Montevallo/4-Montevallo-Commons-Pkwy-35115/unit-4/home/101764701,Greater Alabama MLS,490797,"TEAMMASSEYPROPERTIES, LLC",N,Y,33.0923004150391,-86.8463668823242,false
MLS Listing,Vacant Land,5 Montevallo Commons Pkwy #5,Montevallo,AL,35115,49900,,,,,25264,,0,,145,Active,,,,,49900,,,http://www.redfin.com/AL/Montevallo/5-Montevallo-Commons-Pkwy-35115/unit-5/home/101764703,Greater Alabama MLS,490799,"TEAMMASSEYPROPERTIES, LLC",N,Y,33.0923004150391,-86.8463668823242,false
MLS Listing,Vacant Land,14 Montevallo Commons Pkwy #14,Montevallo,AL,35115,49900,,,,,33541,,0,,145,Active,,,,,49900,,,http://www.redfin.com/AL/Montevallo/14-Montevallo-Commons-Pkwy-35115/unit-14/home/101765364,Greater Alabama MLS,490804,"TEAMMASSEYPROPERTIES, LLC",N,Y,33.0923004150391,-86.8463668823242,false
MLS Listing,Vacant Land,15 Montevallo Commons Pkwy #15,Montevallo,AL,35115,49900,,,,,29620,,0,,145,Active,,,,,49900,,,http://www.redfin.com/AL/Montevallo/15-Montevallo-Commons-Pkwy-35115/unit-15/home/101765365,Greater Alabama MLS,490807,"TEAMMASSEYPROPERTIES, LLC",N,Y,33.0923004150391,-86.8463668823242,false
MLS Listing,Vacant Land,16 Montevallo Commons Pkwy #16,Montevallo,AL,35115,49900,,,,,38768,,0,,145,Active,,,,,49900,,,http://www.redfin.com/AL/Montevallo/16-Montevallo-Commons-Pkwy-35115/unit-16/home/101765366,Greater Alabama MLS,490808,"TEAMMASSEYPROPERTIES, LLC",N,Y,33.0923004150391,-86.8463668823242,false
MLS Listing,Vacant Land,No Address Provided,Montevallo,AL,35115,390000,,,Calera/Montevallo/Wilton,,871200,,0,,145,Active,,,,,390000,,,http://www.redfin.com/AL/Montevallo/Unknown-35115/unit-1/home/101763350,Greater Alabama MLS,727029,RE/MAX Southern Homes-280,N,Y,33.0934526,-86.8849896,false
MLS Listing,Vacant Land,128 Mountainview Dr Lot 3,Montevallo,AL,35115,109900,,,,,392040,,0,,145,Active,,,,,109900,,,http://www.redfin.com/AL/Montevallo/128-Mountainview-Dr-35115/unit-3/home/101766567,Greater Alabama MLS,615858,RealtySouth-Chilton/Montgomery,N,Y,33.15168,-86.837939,false
MLS Listing,Single Family Residential,177 Heritage Trace Pkwy,Montevallo,AL,35115,309325,5,4.0,Heritage Trace,,,2015,2,Garage,104,Active,,,,,309325,,,http://www.redfin.com/AL/Montevallo/177-Heritage-Trace-PKWY-35115/unit-125/home/101749309,Greater Alabama MLS,735671,RealtySouth-Huntsville-BHM,N,Y,33.1391959,-86.8206756,false
MLS Listing,Single Family Residential,2314 Salem Rd,Montevallo,AL,35115,460000,4,4.5,Montevallo,,431244,1991,2,Garage,145,Active,,,,2015-12-07,870000,2007-11-30,350000.0,http://www.redfin.com/AL/Montevallo/2314-Salem-Rd-35115/home/80759374,Greater Alabama MLS,633046,RE/MAX Advantage South,N,Y,33.1427228,-86.8569243,false
MLS Listing,Single Family Residential,2256 Salem Rd,Montevallo,AL,35115,750000,4,4.5,Montevallo,,541015,2002,2,Garage,110,Active,,,,,750000,,,http://www.redfin.com/AL/Montevallo/2256-Salem-Rd-35115/home/80767010,Greater Alabama MLS,735287,ForSaleByOwner.com Referral Se,N,Y,33.142128,-86.85489,false
MLS Listing,Single Family Residential,125 Coeur D Alene,Montevallo,AL,35115,524900,4,4.5,Indian Cove,,211701,1995,1,Garage,145,Active,,,,,524900,,,http://www.redfin.com/AL/Montevallo/125-Coeur-Dalene-35115/home/80715900,Greater Alabama MLS,723632,"TEAMMASSEYPROPERTIES, LLC",N,Y,33.11478,-86.846913,false
MLS Listing,Single Family Residential,2560,Montevallo,AL,35115,64900,3,1.0,Montevallo,,22215,1935,2,,145,Active,,,,,64900,,,http://www.redfin.com/AL/Montevallo/2560-Montevallo-Rd-35115/home/101748938,Greater Alabama MLS,603567,"Hope Realty, LLC",N,Y,33.1234518,-86.8446932,false
MLS Listing,Vacant Land,108 Heritage Trace Pkwy #186,Montevallo,AL,35115,25000,,,Heritage Trace,,,,0,,145,Active,,,,,25000,,,http://www.redfin.com/AL/Montevallo/108-Heritage-Trace-PKWY-35115/unit-186/home/101763245,Greater Alabama MLS,629482,RE/MAX Southern Homes-280,N,Y,33.1397398,-86.8215151,false
MLS Listing,Single Family Residential,2003 Discovery Dr,Montevallo,AL,35115,179900,4,3.0,Lexington Parc,,,2015,2,Garage,145,Active,,,,,179900,,,http://www.redfin.com/AL/Montevallo/2003-Discovery-DR-35115/unit-141/home/101749156,Greater Alabama MLS,732067,ARC Realty,N,Y,33.1426985,-86.8185295,false
MLS Listing,Single Family Residential,120 Moores Spring Rd,Montevallo,AL,35115,139900,3,2.0,Ammersee Lakes,,6534,2007,2,Garage,145,Active,,,,2016-02-02,144900,2008-04-28,147150.0,http://www.redfin.com/AL/Montevallo/120-Moores-Spring-Rd-35115/home/80735622,Greater Alabama MLS,632097,RE/MAX First Choice,N,Y,33.146913,-86.817644,false
MLS Listing,Single Family Residential,1016 Pilgrim Ln,Montevallo,AL,35115,149900,3,2.0,Lexington Parc,,,2010,2,Garage,50,Active,,,,,149900,,,http://www.redfin.com/AL/Montevallo/1016-Pilgrim-Ln-35115/home/80737965,Greater Alabama MLS,739583,RealtySouth-Chilton/Montgomery,N,Y,33.1431997,-86.821019,false
MLS Listing,Vacant Land,550 Middle St #0,Montevallo,AL,35115,700000,,,,,86684,,0,,145,Active,,,,,700000,,,http://www.redfin.com/AL/Montevallo/550-Middle-ST-35115/unit-0/home/101763723,Greater Alabama MLS,724309,"TEAMMASSEYPROPERTIES, LLC",N,Y,33.0991395,-86.8619434,false
MLS Listing,Single Family Residential,115 Strother St #0,Montevallo,AL,35115,134900,3,2.0,Wilmont,,14810,2009,1,Garage,145,Active,,,,,134900,,,http://www.redfin.com/AL/Montevallo/115-Strother-ST-35115/unit-0/home/101750219,Greater Alabama MLS,731212,LAH - Homewood,N,Y,33.0840226,-86.8758077,false
MLS Listing,Single Family Residential,41 White St,Montevallo,AL,35115,129900,3,2.0,Montevallo,,,1967,2,,37,Active,,,,,129900,,,http://www.redfin.com/AL/Montevallo/41-White-St-35115/home/103831850,Greater Alabama MLS,740798,RE/MAX Advantage South,N,Y,33.0965787,-86.8643669,false
MLS Listing,Townhouse,123 Gardner St,Montevallo,AL,35115,75000,2,1.5,Shaw Villas,,,1991,0,,30,Active,,,,,75000,,,http://www.redfin.com/AL/Montevallo/123-Gardner-St-35115/home/80762738,Greater Alabama MLS,741449,Keller Williams Metro South,N,Y,33.093608,-86.856895,false
MLS Listing,Single Family Residential,112 Hidden Trace Ct,Montevallo,AL,35115,159000,4,2.5,Lakes At Hidden Forest,,,2007,2,Garage,34,Active,,,,,159000,,,http://www.redfin.com/AL/Montevallo/112-Hidden-Trace-Ct-35115/home/80735090,Greater Alabama MLS,741125,Real Estate Practitioners 1,N,Y,33.167651,-86.827124,false
MLS Listing,Single Family Residential,100 Liberty Dr,Montevallo,AL,35115,109000,4,2.5,,,43560,1979,1,Garage,35,Active,,,,,109000,,,http://www.redfin.com/AL/Montevallo/100-Liberty-Dr-35115/home/80759539,Greater Alabama MLS,741010,Bradford Real Estate Group,N,Y,33.11492,-86.880957,false
MLS Listing,Single Family Residential,2021 Hidden Forest Ln,Montevallo,AL,35115,159900,3,2.0,Hidden Forest,,,2006,2,Garage,21,Active,,,,,159900,2006-08-24,162650.0,http://www.redfin.com/AL/Montevallo/2021-Hidden-Forest-Ln-35115/home/80731773,Greater Alabama MLS,742352,Century 21 Advantage,N,Y,33.165034,-86.824125,false
MLS Listing,Single Family Residential,130 Hillcrest Dr,Montevallo,AL,35115,198900,4,2.0,Lakes At Hidden Forest,,11761,2016,2,Garage,20,Active,,,,,198900,,,http://www.redfin.com/AL/Montevallo/130-Hillcrest-Dr-35115/home/104003401,Greater Alabama MLS,742509,"Adams Homes, LLC",N,Y,33.1651452,-86.8283791,false
MLS Listing,Single Family Residential,167 Hidden Trace Ct,Montevallo,AL,35115,142730,3,2.0,Lakes At Hidden Forest,,6098,2016,2,Garage,145,Active,,,,,140450,,,http://www.redfin.com/AL/Montevallo/167-Hidden-Trace-CT-35115/unit-93/home/101748581,Greater Alabama MLS,724925,"Adams Homes, LLC",N,Y,33.1696231,-86.8275077,false
MLS Listing,Single Family Residential,1065 Hidden Forest Dr,Montevallo,AL,35115,204375,4,3.0,Hidden Forest,,10454,2015,2,Garage,145,Active,,,,,202375,,,http://www.redfin.com/AL/Montevallo/1065-Hidden-Forest-DR-35115/unit-22/home/101748811,Greater Alabama MLS,721087,"Adams Homes, LLC",N,Y,33.1669061,-86.8259188,false
MLS Listing,Single Family Residential,209 Hillcrest Dr,Montevallo,AL,35115,149900,3,2.0,Lakes At Hidden Forest,,10018,2016,2,Garage,19,Active,,,,,149900,,,http://www.redfin.com/AL/Montevallo/209-Hillcrest-Dr-35115/home/104007659,Greater Alabama MLS,742632,"Adams Homes, LLC",N,Y,33.1656262,-86.830674,false
MLS Listing,Single Family Residential,159 Hidden Trace Ct,Montevallo,AL,35115,142730,3,2.0,Lakes At Hidden Forest,,6098,2016,2,Garage,145,Active,,,,,140450,,,http://www.redfin.com/AL/Montevallo/159-Hidden-Trace-CT-35115/unit-95/home/101748582,Greater Alabama MLS,724930,"Adams Homes, LLC",N,Y,33.1693255,-86.8274994,false
MLS Listing,Single Family Residential,193 Hillcrest Dr,Montevallo,AL,35115,148500,3,2.0,Lakes At Hidden Forest,,9583,2007,2,Garage,8,Active,,,,,148500,,,http://www.redfin.com/AL/Montevallo/193-Hillcrest-Dr-35115/home/80738043,Greater Alabama MLS,743707,Brik Realty,N,Y,33.164887,-86.830899,false
MLS Listing,Vacant Land,Bridlewood Farms Rd #16,Montevallo,AL,35035,65000,,,BibbCounty,,444747,,0,,127,Active,,,,,65000,,,http://www.redfin.com/AL/Brierfield/Bridlewood-Farms-Rd-35035/unit-16/home/102024382,Greater Alabama MLS,734257,Keller Williams Metro South,N,Y,33.1006088256836,-86.8625869750977,false
MLS Listing,Single Family Residential,265 Creek St,Montevallo,AL,35115,289000,4,3.5,Indian Highlands,,22651,1980,0,,119,Active,,,,2016-02-25,299000,,,http://www.redfin.com/AL/Montevallo/265-Creek-St-35115/home/102092031,Greater Alabama MLS,734818,RealtySouth-Shelby Office,N,Y,33.114919,-86.850224,false
MLS Listing,Single Family Residential,1051 Moody St,Montevallo,AL,35115,155000,4,2.0,Lymans Addition,,13068,1971,0,,25,Active,,,,,155000,,,http://www.redfin.com/AL/Montevallo/1051-Moody-St-35115/home/103979880,Greater Alabama MLS,741938,Keller Williams Realty Hoover,N,Y,33.107078,-86.8594408,false
MLS Listing,Single Family Residential,480 Crestview Cir,Montevallo,AL,35115,119900,3,2.0,Arden Park,,14374,1960,1,,145,Active,,,,2016-03-02,129900,2013-07-12,65000.0,http://www.redfin.com/AL/Montevallo/480-Crestview-Cir-35115/home/80759832,Greater Alabama MLS,724769,RE/MAX First Choice,N,Y,33.105421,-86.851089,false
MLS Listing,Single Family Residential,841 Spring Creek Rd,Montevallo,AL,35115,123900,3,2.0,,,23086,2005,1,Garage,143,Active,,,,2016-03-10,129900,2005-08-02,9000.0,http://www.redfin.com/AL/Montevallo/841-Spring-Creek-Rd-35115/home/80760033,Greater Alabama MLS,733025,"Realty Pros, LLC",N,Y,33.099125,-86.848413,false
MLS Listing,Townhouse,998 Valley St,Montevallo,AL,35115,125000,2,2.5,Montevallo,,,2007,2,,20,Active,,,,,125000,2014-05-06,124000.0,http://www.redfin.com/AL/Montevallo/998-Valley-St-35115/unit-B/home/80737985,Greater Alabama MLS,742432,Keller Williams Metro South,N,Y,33.102989,-86.860522,false
MLS Listing,Single Family Residential,1215 Oak St,Montevallo,AL,35115,130000,3,2.0,Lymans Addition,,15681,1991,0,,145,Active,,,,2016-03-07,140000,2007-08-07,111000.0,http://www.redfin.com/AL/Montevallo/1215-Oak-St-35115/home/80759770,Greater Alabama MLS,727378,Keller Williams Metro South,N,Y,33.105647,-86.859266,false
MLS Listing,Single Family Residential,1115 Oak St,Montevallo,AL,35115,175000,4,2.0,Lymans Addition,,,1948,2,Garage,98,Active,,,,2016-01-19,180000,,,http://www.redfin.com/AL/Montevallo/1115-Oak-St-35115/home/80712943,Greater Alabama MLS,736043,Keller Williams Metro South,N,Y,33.105032,-86.860194,false
MLS Listing,Single Family Residential,185 Gardner St,Montevallo,AL,35115,69000,3,1.5,Canterbury,,87,1958,1,,4,Active,,,,,69000,,,http://www.redfin.com/AL/Montevallo/185-Gardner-St-35115/home/80762642,Greater Alabama MLS,744302,"Canterbury Realty Group, LLC",N,Y,33.093039,-86.855894,false
MLS Listing,Single Family Residential,181 Heritage Trace Pkwy,Montevallo,AL,35115,268925,4,3.0,Heritage Trace,,,2015,2,Garage,104,Active,,,,,268325,,,http://www.redfin.com/AL/Montevallo/181-Heritage-Trace-PKWY-35115/unit-126/home/101749310,Greater Alabama MLS,735674,RealtySouth-Huntsville-BHM,N,Y,33.1391962,-86.8206754,false
MLS Listing,Single Family Residential,1012 Princeton Park,Montevallo,AL,35115,193900,3,2.0,Heritage Trace,,12196,2007,2,Garage,52,Active,,,,2016-03-01,195000,,,http://www.redfin.com/AL/Montevallo/1012-Princeton-Park-35115/home/80735582,Greater Alabama MLS,738155,RE/MAX First Choice,N,Y,33.140514,-86.82165,false
MLS Listing,Single Family Residential,123 Country Hills Rd,Montevallo,AL,35115,299900,5,5.0,Country Hills,,29185,2002,2,Garage,145,Active,,,,2016-03-06,345000,,,http://www.redfin.com/AL/Montevallo/123-Country-Hills-Rd-35115/home/80715343,Greater Alabama MLS,728694,"Arcara Residential, LLC",N,Y,33.155613,-86.827336,false
MLS Listing,Single Family Residential,212 Meadowgreen Dr,Montevallo,AL,35115,63750,3,2.0,Meadowgreen,,130,1982,0,,12,Active,,,,,63750,2010-03-23,72000.0,http://www.redfin.com/AL/Montevallo/212-Meadowgreen-Dr-35115/home/80759339,Greater Alabama MLS,743442,Century 21 Meyer Real Estate,N,Y,33.154965,-86.819061,false
MLS Listing,Single Family Residential,1005 Hidden Forest Dr,Montevallo,AL,35114,216126,4,3.0,Hidden Forest,,11761,2016,2,Garage,20,Active,,,,2016-03-15,214526,,,http://www.redfin.com/AL/Montevallo/1005-Hidden-Forest-Dr-35115/home/104003311,Greater Alabama MLS,742500,"Adams Homes, LLC",N,Y,33.1656016,-86.8219784,false
MLS Listing,Single Family Residential,13 Monte Verde Ln,Montevallo,AL,35115,116900,3,2.0,Monte Verde,,21344,1977,2,Garage,68,Active,,,,2016-03-18,125000,2015-10-08,108500.0,http://www.redfin.com/AL/Montevallo/13-Monte-Verde-Ln-35115/home/80711592,Greater Alabama MLS,738042,RE/MAX First Choice,N,Y,33.160735,-86.818577,false
MLS Listing,Single Family Residential,3013 Hidden Forest Cv,Montevallo,AL,35115,223900,4,3.0,Hidden Forest,,,2006,4,Garage,145,Active,,,,2016-03-14,224900,2006-09-18,219900.0,http://www.redfin.com/AL/Montevallo/3013-Hidden-Forest-Cv-35115/home/80731813,Greater Alabama MLS,729243,Keller Williams Metro South,N,Y,33.165889,-86.824543,false
MLS Listing,Vacant Land,No Address Provided,Montevallo,AL,35115,50000,,,Calera/Montevallo/Wilton,,209959,,0,,145,Active,,,,2016-03-20,160000,,,http://www.redfin.com/AL/Montevallo/Unknown-Unknown/unit-44-45/home/101765992,Greater Alabama MLS,723464,Keller Williams Metro South,N,Y,33.099717,-86.890046,false

