SALE TYPE,HOME TYPE,ADDRESS,CITY,STATE,ZIP,LIST PRICE,BEDS,BATHS,LOCATION,SQFT,LOT SIZE,YEAR BUILT,PARKING SPOTS,PARKING TYPE,DAYS ON MARKET,STATUS,NEXT OPEN HOUSE DATE,NEXT OPEN HOUSE START TIME,NEXT OPEN HOUSE END TIME,RECENT REDUCTION DATE,ORIGINAL LIST PRICE,LAST SALE DATE,LAST SALE PRICE,URL (SEE http://www.redfin.com/buy-a-home/comparative-market-analysis FOR INFO ON PRICING),SOURCE,LISTING ID,ORIGINAL SOURCE,FAVORITE,INTERESTED,LATITUDE,LONGITUDE,IS SHORT SALE
MLS Listing,Single Family Residential,111 Allison St,Piedmont,AL,36272,85880,3,1.0,Piedmont,,22215,1964,1,,5,Active,,,,,85880,,,http://www.redfin.com/AL/Piedmont/111-Allison-St-36272/home/104215272,Greater Alabama MLS,744132,Pope Realty & Appraisal Serv.,N,Y,33.9268,-85.5964,false
MLS Listing,Single Family Residential,185 Meadowbrook Dr,Piedmont,AL,36272,179900,3,3.0,Piedmont,,298821,1986,2,Garage,140,Active,,,,2016-03-21,189900,,,http://www.redfin.com/AL/Piedmont/185-Meadowbrook-Dr-36272/home/80652792,Greater Alabama MLS,733303,Pope Realty & Appraisal Serv.,N,Y,33.9086825,-85.6031698,false
MLS Listing,Single Family Residential,503 1st Ave,Piedmont,AL,36272,26900,3,2.0,Piedmont,,6969,1949,1,,39,Active,,,,2016-03-14,29900,,,http://www.redfin.com/AL/Piedmont/503-1st-Ave-36272/home/80652960,Greater Alabama MLS,740682,Home Realty Company,N,Y,33.9287,-85.6131,false
MLS Listing,Single Family Residential,47 Pine St,Piedmont,AL,36272,45000,4,2.0,Lakeview,,9147,1985,0,,33,Active,,,,,45000,,,http://www.redfin.com/AL/Piedmont/47-Pine-St-36272/home/80650413,Greater Alabama MLS,741175,"Susie Weems Real Estate, LLC",N,Y,33.936,-85.6137,false
MLS Listing,Single Family Residential,406 Riddle Ave,Piedmont,AL,36272,39900,3,2.0,Piedmont,,17859,1968,2,,72,Active,,,,2016-02-26,49900,,,http://www.redfin.com/AL/Piedmont/406-Riddle-Ave-36272/home/102590427,Greater Alabama MLS,737615,"Vintage Properties, LLC",N,Y,33.9179,-85.6117,false
MLS Listing,Vacant Land,403 Piedmont Ave Unit 10&11,Piedmont,AL,36272,6500,,,Piedmont,,19166,,0,,145,Active,,,,2016-02-17,7500,,,http://www.redfin.com/AL/Piedmont/403-Piedmont-Ave-36272/unit-10-11/home/101764832,Greater Alabama MLS,626731,Keller Williams Realty Group,N,Y,33.9181,-85.615,false
MLS Listing,Single Family Residential,307 4th Ave,Piedmont,AL,36272,39900,3,1.0,Piedmont,,8712,1954,1,,75,Active,,,,,39900,,,http://www.redfin.com/AL/Piedmont/307-4th-Ave-36272/home/102616715,Greater Alabama MLS,737413,Pope Realty & Appraisal Serv.,N,Y,33.9261,-85.6169,false
MLS Listing,Mobile/Manufactured Home,599 Bramlett Rd,Piedmont,AL,36272,74900,3,2.0,,,708285,1999,0,,56,Active,,,,,74900,,,http://www.redfin.com/AL/Piedmont/599-Bramlett-Rd-36272/home/80649730,Greater Alabama MLS,739036,Pope Realty & Appraisal Serv.,N,Y,33.9542,-85.6531,false
MLS Listing,Single Family Residential,205 Barlow St,Piedmont,AL,36272,89900,2,2.0,Standard Coosa Thatcher,,6969,1920,0,,67,Active,,,,,89900,,,http://www.redfin.com/AL/Piedmont/205-Barlow-St-36272/home/102857333,Greater Alabama MLS,738099,Pope Realty & Appraisal Serv.,N,Y,33.9232,-85.6054,false
MLS Listing,Multi-Family (2-4 Unit),208 5th St,Piedmont,AL,36272,27500,4,2.0,Piedmont,,,1969,0,,69,Active,,,,,27500,,,http://www.redfin.com/AL/Piedmont/208-N-5th-Ave-36272/home/80652795,Greater Alabama MLS,737877,ERA King Real Estate,N,Y,33.924,-85.6172,false
MLS Listing,Single Family Residential,109 Church St N,Piedmont,AL,36272,99900,3,2.0,,,26571,1910,2,,75,Active,,,,,99900,,,http://www.redfin.com/AL/Piedmont/109-N-Church-St-36272/home/101751631,Greater Alabama MLS,737397,Pope Realty & Appraisal Serv.,N,Y,33.9253,-85.61,false
MLS Listing,Single Family Residential,410 N 5th Ave,Piedmont,AL,36272,65000,3,2.0,Barlow Estates,,8712,1950,0,,107,Active,,,,2015-12-30,70500,,,http://www.redfin.com/AL/Piedmont/410-N-5th-Ave-36272/home/102186821,Greater Alabama MLS,735379,ERA King Real Estate,N,Y,33.9278,-85.6174,false
MLS Listing,Single Family Residential,416 Riddle Ave,Piedmont,AL,36272,75900,3,2.0,,,17859,1900,0,,145,Active,,,,,75900,,,http://www.redfin.com/AL/Piedmont/416-Riddle-Ave-36272/home/101749870,Greater Alabama MLS,721711,Keller Williams Realty Group,N,Y,33.9173,-85.6117,false
MLS Listing,Single Family Residential,508 2nd Ave,Piedmont,AL,36272,85000,4,2.0,Piedmont,,,1955,1,,145,Active,,,,,85000,2014-04-09,62500.0,http://www.redfin.com/AL/Piedmont/508-2nd-Ave-36272/home/101751370,Greater Alabama MLS,725937,"A P Real Estate, LLC",N,Y,33.9293,-85.6146,false
MLS Listing,Single Family Residential,116 Morgan Ave,Piedmont,AL,36272,84900,3,2.0,,,9147,1977,2,Garage,105,Active,,,,,84900,,,http://www.redfin.com/AL/Piedmont/116-Morgan-Ave-36272/home/80652495,Greater Alabama MLS,735555,ERA King Real Estate,N,Y,33.9287,-85.6079,false
MLS Listing,Single Family Residential,149 Oak Glen Dr,Piedmont,AL,36272,144900,3,2.0,,,138956,1970,4,Garage,145,Active,,,,,144900,2013-07-09,124000.0,http://www.redfin.com/AL/Piedmont/149-Oak-Glen-Rd-36272/home/101750814,Greater Alabama MLS,630219,Pope Realty & Appraisal Serv.,N,Y,33.9417,-85.605,false
MLS Listing,Single Family Residential,52 Scott Dr,Piedmont,AL,36272,143900,3,2.0,,,19602,2000,2,Garage,135,Active,,,,,143900,,,http://www.redfin.com/AL/Piedmont/52-Scott-Dr-36272/home/80649856,Greater Alabama MLS,733675,Gold Star Realty-Oxford,N,Y,33.9387703,-85.6123182,false
MLS Listing,Single Family Residential,301 Southern Ave,Piedmont,AL,36272,45000,2,1.0,,,6534,1902,0,,145,Active,,,,,45000,,,http://www.redfin.com/AL/Piedmont/301-Southern-Ave-36272/home/80653146,Greater Alabama MLS,732036,Pope Realty & Appraisal Serv.,N,Y,33.925,-85.6077,false
MLS Listing,Single Family Residential,111 Eubanks Ave,Piedmont,AL,36272,50000,3,1.0,Standard Coosa Thatcher,,11761,1927,0,,140,Active,,,,,50000,2013-07-29,10700.0,http://www.redfin.com/AL/Piedmont/111-Eubanks-Ave-36272/home/101755178,Greater Alabama MLS,733293,Pope Realty & Appraisal Serv.,N,Y,33.9249,-85.5986,false
MLS Listing,Single Family Residential,702 Southern Ave,Piedmont,AL,36272,239900,3,2.5,,,766220,1967,0,,145,Active,,,,2016-03-23,249900,,,http://www.redfin.com/AL/Piedmont/702-Southern-Ave-36272/home/101751209,Greater Alabama MLS,730356,Keller Williams Realty Group,N,Y,33.9368,-85.5981,false
MLS Listing,Single Family Residential,106 Dailey St,Piedmont,AL,36272,29900,3,1.5,,,33105,1946,0,,1,Active,,,,,29900,2014-03-10,27000.0,http://www.redfin.com/AL/Piedmont/106-Dailey-St-36272/home/101756050,Greater Alabama MLS,744589,Pope Realty & Appraisal Serv.,N,Y,33.9238,-85.6072,false
MLS Listing,Vacant Land,166 Wagon Rd #0,Piedmont,AL,36272,19900,,,Calhoun County,,195584,,0,,145,Active,,,,,19900,2015-07-28,17000.0,http://www.redfin.com/AL/Piedmont/166-The-Wagon-RD-36272/unit-0/home/101763043,Greater Alabama MLS,728533,Pope Realty & Appraisal Serv.,N,Y,33.9138146,-85.5844835,false
MLS Listing,Vacant Land,"0 Woolf Ave Unit 6,7,8",Piedmont,AL,36272,6500,,,Calhoun County,,23958,,0,,145,Active,,,,,6500,,,http://www.redfin.com/AL/Piedmont/0-Woolf-Ave-36272/unit-6-7-8/home/101763310,Greater Alabama MLS,729845,Pope Realty & Appraisal Serv.,N,Y,33.9202566745778,-85.5995024762207,false

